[{"lat":"-16.75881189","lng":"-49.44054783","municipio":"Abadia de Goiás","uf":"GO","ibge":5200050},{"lat":"-18.48756496","lng":"-47.39683244","municipio":"Abadia dos Dourados","uf":"MG","ibge":3100104},{"lat":"-16.18267186","lng":"-48.71881214","municipio":"Abadiânia","uf":"GO","ibge":5200100},{"lat":"-19.15584769","lng":"-45.44619142","municipio":"Abaeté","uf":"MG","ibge":3100203},{"lat":"-1.723469863","lng":"-48.88440382","municipio":"Abaetetuba","uf":"PA","ibge":1500107},{"lat":"-7.356976596","lng":"-39.04754664","municipio":"Abaiara","uf":"CE","ibge":2300101},{"lat":"-13.25353189","lng":"-41.66160848","municipio":"Abaíra","uf":"BA","ibge":2900108},{"lat":"-8.723418246","lng":"-39.11658794","municipio":"Abaré","uf":"BA","ibge":2900207},{"lat":"-23.30049404","lng":"-50.31252658","municipio":"Abatiá","uf":"PR","ibge":4100103},{"lat":"-27.60898712","lng":"-51.02527221","municipio":"Abdon Batista","uf":"SC","ibge":4200051},{"lat":"-4.951390896","lng":"-48.39676213","municipio":"Abel Figueiredo","uf":"PA","ibge":1500131},{"lat":"-26.56303102","lng":"-52.33648238","municipio":"Abelardo Luz","uf":"SC","ibge":4200101},{"lat":"-20.30144528","lng":"-42.48098999","municipio":"Abre Campo","uf":"MG","ibge":3100302},{"lat":"-7.90444899","lng":"-34.89913058","municipio":"Abreu e Lima","uf":"PE","ibge":2600054},{"lat":"-9.621790712","lng":"-49.16243756","municipio":"Abreulândia","uf":"TO","ibge":1700251},{"lat":"-20.36040893","lng":"-43.1482389","municipio":"Acaiaca","uf":"MG","ibge":3100401},{"lat":"-4.951377","lng":"-47.50666459","municipio":"Açailândia","uf":"MA","ibge":2100055},{"lat":"-11.66261283","lng":"-38.01828637","municipio":"Acajutiba","uf":"BA","ibge":2900306},{"lat":"-1.9634365","lng":"-48.20045643","municipio":"Acará","uf":"PA","ibge":1500206},{"lat":"-4.223138409","lng":"-38.70562377","municipio":"Acarape","uf":"CE","ibge":2300150},{"lat":"-2.88531054","lng":"-40.11824147","municipio":"Acaraú","uf":"CE","ibge":2300200},{"lat":"-6.442085089","lng":"-36.64373887","municipio":"Acari","uf":"RN","ibge":2400109},{"lat":"-8.220786663","lng":"-41.08363782","municipio":"Acauã","uf":"PI","ibge":2200053},{"lat":"-31.8640153","lng":"-54.16473154","municipio":"Aceguá","uf":"RS","ibge":4300034},{"lat":"-6.092761995","lng":"-39.45570528","municipio":"Acopiara","uf":"CE","ibge":2300309},{"lat":"-15.19788998","lng":"-56.37155257","municipio":"Acorizal","uf":"MT","ibge":5100102},{"lat":"-10.07379389","lng":"-67.05231658","municipio":"Acrelândia","uf":"AC","ibge":1200013},{"lat":"-17.39815622","lng":"-50.37497337","municipio":"Acreúna","uf":"GO","ibge":5200134},{"lat":"-5.571945999","lng":"-36.91792322","municipio":"Açu","uf":"RN","ibge":2400208},{"lat":"-19.07671289","lng":"-42.54621088","municipio":"Açucena","uf":"MG","ibge":3100500},{"lat":"-21.68831148","lng":"-51.07336475","municipio":"Adamantina","uf":"SP","ibge":3500105},{"lat":"-16.41500151","lng":"-50.16314668","municipio":"Adelândia","uf":"GO","ibge":5200159},{"lat":"-21.23272978","lng":"-49.64972143","municipio":"Adolfo","uf":"SP","ibge":3500204},{"lat":"-24.66168971","lng":"-48.99175454","municipio":"Adrianópolis","uf":"PR","ibge":4100202},{"lat":"-10.52957157","lng":"-38.11550583","municipio":"Adustina","uf":"BA","ibge":2900355},{"lat":"-7.748327586","lng":"-37.63768602","municipio":"Afogados da Ingazeira","uf":"PE","ibge":2600104},{"lat":"-5.498734268","lng":"-36.50914823","municipio":"Afonso Bezerra","uf":"RN","ibge":2400307},{"lat":"-20.07704001","lng":"-41.12545972","municipio":"Afonso Cláudio","uf":"ES","ibge":3200102},{"lat":"-4.135015477","lng":"-43.320869","municipio":"Afonso Cunha","uf":"MA","ibge":2100105},{"lat":"-8.511091284","lng":"-41.00579734","municipio":"Afrânio","uf":"PE","ibge":2600203},{"lat":"-0.159171694","lng":"-50.39142759","municipio":"Afuá","uf":"PA","ibge":1500305},{"lat":"-8.455973","lng":"-35.94677684","municipio":"Agrestina","uf":"PE","ibge":2600302},{"lat":"-5.795501935","lng":"-42.6591832","municipio":"Agricolândia","uf":"PI","ibge":2200103},{"lat":"-27.40051659","lng":"-49.82565339","municipio":"Agrolândia","uf":"SC","ibge":4200200},{"lat":"-27.26971611","lng":"-49.71836889","municipio":"Agronômica","uf":"SC","ibge":4200309},{"lat":"-6.804948867","lng":"-50.48527451","municipio":"Água Azul do Norte","uf":"PA","ibge":1500347},{"lat":"-17.99105305","lng":"-42.38964323","municipio":"Água Boa","uf":"MG","ibge":3100609},{"lat":"-14.0490868","lng":"-52.1589153","municipio":"Água Boa","uf":"MT","ibge":5100201},{"lat":"-5.893266338","lng":"-42.63513086","municipio":"Água Branca","uf":"PI","ibge":2200202},{"lat":"-9.267025497","lng":"-37.94071518","municipio":"Água Branca","uf":"AL","ibge":2700102},{"lat":"-7.511070151","lng":"-37.64220904","municipio":"Água Branca","uf":"PB","ibge":2500106},{"lat":"-20.44885076","lng":"-52.87511755","municipio":"Água Clara","uf":"MS","ibge":5000203},{"lat":"-20.05931241","lng":"-48.10807677","municipio":"Água Comprida","uf":"MG","ibge":3100708},{"lat":"-27.00409166","lng":"-51.55909656","municipio":"Água Doce","uf":"SC","ibge":4200408},{"lat":"-2.840278279","lng":"-42.1155512","municipio":"Água Doce do Maranhão","uf":"MA","ibge":2100154},{"lat":"-18.54554649","lng":"-40.97645591","municipio":"Água Doce do Norte","uf":"ES","ibge":3200169},{"lat":"-11.872931","lng":"-38.7680778","municipio":"Água Fria","uf":"BA","ibge":2900405},{"lat":"-14.98553527","lng":"-47.78221216","municipio":"Água Fria de Goiás","uf":"GO","ibge":5200175},{"lat":"-18.07140606","lng":"-48.76124096","municipio":"Água Limpa","uf":"GO","ibge":5200209},{"lat":"-6.204716719","lng":"-38.29082495","municipio":"Água Nova","uf":"RN","ibge":2400406},{"lat":"-8.709122552","lng":"-35.51855735","municipio":"Água Preta","uf":"PE","ibge":2600401},{"lat":"-28.17505475","lng":"-52.03463279","municipio":"Água Santa","uf":"RS","ibge":4300059},{"lat":"-22.059684","lng":"-46.97969311","municipio":"Aguaí","uf":"SP","ibge":3500303},{"lat":"-20.9374322","lng":"-45.38946534","municipio":"Aguanil","uf":"MG","ibge":3100807},{"lat":"-9.1145895","lng":"-37.12195717","municipio":"Águas Belas","uf":"PE","ibge":2600500},{"lat":"-21.934829","lng":"-46.71676671","municipio":"Águas da Prata","uf":"SP","ibge":3500402},{"lat":"-27.07621291","lng":"-52.98725101","municipio":"Águas de Chapecó","uf":"SC","ibge":4200507},{"lat":"-22.47382204","lng":"-46.63177884","municipio":"Águas de Lindóia","uf":"SP","ibge":3500501},{"lat":"-22.86914941","lng":"-49.23860777","municipio":"Águas de Santa Bárbara","uf":"SP","ibge":3500550},{"lat":"-22.59733955","lng":"-47.88397474","municipio":"Águas de São Pedro","uf":"SP","ibge":3500600},{"lat":"-17.08230432","lng":"-40.93522794","municipio":"Águas Formosas","uf":"MG","ibge":3100906},{"lat":"-26.88022754","lng":"-52.85941945","municipio":"Águas Frias","uf":"SC","ibge":4200556},{"lat":"-15.73793886","lng":"-48.28344444","municipio":"Águas Lindas de Goiás","uf":"GO","ibge":5200258},{"lat":"-27.70659719","lng":"-48.8405384","municipio":"Águas Mornas","uf":"SC","ibge":4200606},{"lat":"-15.74531995","lng":"-41.4587883","municipio":"Águas Vermelhas","uf":"MG","ibge":3101003},{"lat":"-29.64566336","lng":"-53.25869169","municipio":"Agudo","uf":"RS","ibge":4300109},{"lat":"-22.474037","lng":"-48.99015629","municipio":"Agudos","uf":"SP","ibge":3500709},{"lat":"-25.99061809","lng":"-49.33870188","municipio":"Agudos do Sul","uf":"PR","ibge":4100301},{"lat":"-18.98736137","lng":"-40.73663817","municipio":"Águia Branca","uf":"ES","ibge":3200136},{"lat":"-7.094805762","lng":"-38.17758184","municipio":"Aguiar","uf":"PB","ibge":2500205},{"lat":"-6.547170821","lng":"-47.47045659","municipio":"Aguiarnópolis","uf":"TO","ibge":1700301},{"lat":"-19.49195015","lng":"-41.07332746","municipio":"Aimorés","uf":"MG","ibge":3101102},{"lat":"-14.12727749","lng":"-39.88577801","municipio":"Aiquara","uf":"BA","ibge":2900603},{"lat":"-6.56329844","lng":"-40.12316008","municipio":"Aiuaba","uf":"CE","ibge":2300408},{"lat":"-21.97589666","lng":"-44.60282446","municipio":"Aiuruoca","uf":"MG","ibge":3101201},{"lat":"-28.23772901","lng":"-53.77281889","municipio":"Ajuricaba","uf":"RS","ibge":4300208},{"lat":"-22.17113566","lng":"-44.63809887","municipio":"Alagoa","uf":"MG","ibge":3101300},{"lat":"-7.036775","lng":"-35.63389198","municipio":"Alagoa Grande","uf":"PB","ibge":2500304},{"lat":"-7.057798825","lng":"-35.75945654","municipio":"Alagoa Nova","uf":"PB","ibge":2500403},{"lat":"-8.466270523","lng":"-36.77545601","municipio":"Alagoinha","uf":"PE","ibge":2600609},{"lat":"-6.948140405","lng":"-35.54549135","municipio":"Alagoinha","uf":"PB","ibge":2500502},{"lat":"-7.00817528","lng":"-40.93463482","municipio":"Alagoinha do Piauí","uf":"PI","ibge":2200251},{"lat":"-12.13418259","lng":"-38.42261577","municipio":"Alagoinhas","uf":"BA","ibge":2900702},{"lat":"-23.55389889","lng":"-47.89358839","municipio":"Alambari","uf":"SP","ibge":3500758},{"lat":"-22.19976448","lng":"-46.61160257","municipio":"Albertina","uf":"MG","ibge":3101409},{"lat":"-2.403276525","lng":"-44.41701254","municipio":"Alcântara","uf":"MA","ibge":2100204},{"lat":"-3.586983769","lng":"-40.54463812","municipio":"Alcântaras","uf":"CE","ibge":2300507},{"lat":"-7.741477038","lng":"-36.06060433","municipio":"Alcantil","uf":"PB","ibge":2500536},{"lat":"-18.32503398","lng":"-53.70808963","municipio":"Alcinópolis","uf":"MS","ibge":5000252},{"lat":"-17.51893334","lng":"-39.19421432","municipio":"Alcobaça","uf":"BA","ibge":2900801},{"lat":"-4.630779495","lng":"-43.46873485","municipio":"Aldeias Altas","uf":"MA","ibge":2100303},{"lat":"-27.66107446","lng":"-54.76709622","municipio":"Alecrim","uf":"RS","ibge":4300307},{"lat":"-20.76326514","lng":"-41.53648832","municipio":"Alegre","uf":"ES","ibge":3200201},{"lat":"-29.78204321","lng":"-55.79587015","municipio":"Alegrete","uf":"RS","ibge":4300406},{"lat":"-7.245349466","lng":"-40.85786299","municipio":"Alegrete do Piauí","uf":"PI","ibge":2200277},{"lat":"-27.83729996","lng":"-54.05736641","municipio":"Alegria","uf":"RS","ibge":4300455},{"lat":"-21.87680371","lng":"-42.6959466","municipio":"Além Paraíba","uf":"MG","ibge":3101508},{"lat":"-1.951397505","lng":"-54.74086235","municipio":"Alenquer","uf":"PA","ibge":1500404},{"lat":"-6.417136338","lng":"-38.01928889","municipio":"Alexandria","uf":"RN","ibge":2400505},{"lat":"-16.08616762","lng":"-48.50963639","municipio":"Alexânia","uf":"GO","ibge":5200308},{"lat":"-21.42817812","lng":"-45.9489182","municipio":"Alfenas","uf":"MG","ibge":3101607},{"lat":"-20.63034754","lng":"-40.76004965","municipio":"Alfredo Chaves","uf":"ES","ibge":3200300},{"lat":"-21.95274112","lng":"-51.41293807","municipio":"Alfredo Marcondes","uf":"SP","ibge":3500808},{"lat":"-21.13942346","lng":"-43.77388995","municipio":"Alfredo Vasconcelos","uf":"MG","ibge":3101631},{"lat":"-27.70539633","lng":"-49.3438123","municipio":"Alfredo Wagner","uf":"SC","ibge":4200705},{"lat":"-6.904694038","lng":"-36.0060934","municipio":"Algodão de Jandaíra","uf":"PB","ibge":2500577},{"lat":"-7.432995302","lng":"-34.91198516","municipio":"Alhandra","uf":"PB","ibge":2500601},{"lat":"-7.604729808","lng":"-35.2285015","municipio":"Aliança","uf":"PE","ibge":2600708},{"lat":"-11.30374305","lng":"-48.94124002","municipio":"Aliança do Tocantins","uf":"TO","ibge":1700350},{"lat":"-14.70604775","lng":"-39.63590318","municipio":"Almadina","uf":"BA","ibge":2900900},{"lat":"-11.57452347","lng":"-47.17417168","municipio":"Almas","uf":"TO","ibge":1700400},{"lat":"-1.527338803","lng":"-52.57683509","municipio":"Almeirim","uf":"PA","ibge":1500503},{"lat":"-16.18061617","lng":"-40.69765118","municipio":"Almenara","uf":"MG","ibge":3101706},{"lat":"-6.157420693","lng":"-37.7631253","municipio":"Almino Afonso","uf":"RN","ibge":2400604},{"lat":"-25.3133776","lng":"-49.30031982","municipio":"Almirante Tamandaré","uf":"PR","ibge":4100400},{"lat":"-28.11372629","lng":"-52.91371455","municipio":"Almirante Tamandaré do Sul","uf":"RS","ibge":4300471},{"lat":"-17.72490885","lng":"-49.48232111","municipio":"Aloândia","uf":"GO","ibge":5200506},{"lat":"-18.98683126","lng":"-41.98912911","municipio":"Alpercata","uf":"MG","ibge":3101805},{"lat":"-27.24876876","lng":"-53.03736605","municipio":"Alpestre","uf":"RS","ibge":4300505},{"lat":"-20.86185466","lng":"-46.38948253","municipio":"Alpinópolis","uf":"MG","ibge":3101904},{"lat":"-9.871722597","lng":"-56.09161044","municipio":"Alta Floresta","uf":"MT","ibge":5100250},{"lat":"-11.9355403","lng":"-61.9998239","municipio":"Alta Floresta D'Oeste","uf":"RO","ibge":1100015},{"lat":"-20.52330488","lng":"-49.06011075","municipio":"Altair","uf":"SP","ibge":3500907},{"lat":"-3.20565951","lng":"-52.21437631","municipio":"Altamira","uf":"PA","ibge":1500602},{"lat":"-4.162269267","lng":"-45.46467583","municipio":"Altamira do Maranhão","uf":"MA","ibge":2100402},{"lat":"-24.80100016","lng":"-52.70980745","municipio":"Altamira do Paraná","uf":"PR","ibge":4100459},{"lat":"-6.997498351","lng":"-39.74582064","municipio":"Altaneira","uf":"CE","ibge":2300606},{"lat":"-21.25586995","lng":"-46.14532056","municipio":"Alterosa","uf":"MG","ibge":3102001},{"lat":"-8.4895925","lng":"-36.05969976","municipio":"Altinho","uf":"PE","ibge":2600807},{"lat":"-21.02458264","lng":"-47.37328029","municipio":"Altinópolis","uf":"SP","ibge":3501004},{"lat":"-28.77474554","lng":"-52.99075528","municipio":"Alto Alegre","uf":"RS","ibge":4300554},{"lat":"2.993822948","lng":"-61.31402239","municipio":"Alto Alegre","uf":"RR","ibge":1400050},{"lat":"-21.58168946","lng":"-50.1635968","municipio":"Alto Alegre","uf":"SP","ibge":3501103},{"lat":"-4.207227","lng":"-44.44824749","municipio":"Alto Alegre do Maranhão","uf":"MA","ibge":2100436},{"lat":"-3.665170374","lng":"-45.84207962","municipio":"Alto Alegre do Pindaré","uf":"MA","ibge":2100477},{"lat":"-12.13177722","lng":"-61.85307717","municipio":"Alto Alegre dos Parecis","uf":"RO","ibge":1100379},{"lat":"-17.31558994","lng":"-53.22026033","municipio":"Alto Araguaia","uf":"MT","ibge":5100300},{"lat":"-27.43113788","lng":"-51.91103685","municipio":"Alto Bela Vista","uf":"SC","ibge":4200754},{"lat":"-11.67674516","lng":"-51.37932207","municipio":"Alto Boa Vista","uf":"MT","ibge":5100359},{"lat":"-20.44436112","lng":"-41.87308374","municipio":"Alto Caparaó","uf":"MG","ibge":3102050},{"lat":"-5.293807788","lng":"-36.75949261","municipio":"Alto do Rodrigues","uf":"RN","ibge":2400703},{"lat":"-29.39013917","lng":"-51.31581567","municipio":"Alto Feliz","uf":"RS","ibge":4300570},{"lat":"-16.94672218","lng":"-53.52845412","municipio":"Alto Garças","uf":"MT","ibge":5100409},{"lat":"-14.19922681","lng":"-49.33274916","municipio":"Alto Horizonte","uf":"GO","ibge":5200555},{"lat":"-20.42292711","lng":"-41.96717511","municipio":"Alto Jequitibá","uf":"MG","ibge":3153509},{"lat":"-5.250993011","lng":"-42.21032196","municipio":"Alto Longá","uf":"PI","ibge":2200301},{"lat":"-14.51471181","lng":"-56.49444166","municipio":"Alto Paraguai","uf":"MT","ibge":5100508},{"lat":"-23.50813074","lng":"-53.73289315","municipio":"Alto Paraíso","uf":"PR","ibge":4128625},{"lat":"-9.716666738","lng":"-63.31762943","municipio":"Alto Paraíso","uf":"RO","ibge":1100403},{"lat":"-14.13624464","lng":"-47.51909344","municipio":"Alto Paraíso de Goiás","uf":"GO","ibge":5200605},{"lat":"-23.12712083","lng":"-52.32168244","municipio":"Alto Paraná","uf":"PR","ibge":4100608},{"lat":"-9.108365932","lng":"-45.92734401","municipio":"Alto Parnaíba","uf":"MA","ibge":2100501},{"lat":"-24.01901256","lng":"-53.44124908","municipio":"Alto Piquiri","uf":"PR","ibge":4100707},{"lat":"-21.02214615","lng":"-43.41887066","municipio":"Alto Rio Doce","uf":"MG","ibge":3102100},{"lat":"-19.05749961","lng":"-41.01868434","municipio":"Alto Rio Novo","uf":"ES","ibge":3200359},{"lat":"-5.52208174","lng":"-38.27277815","municipio":"Alto Santo","uf":"CE","ibge":2300705},{"lat":"-17.83474365","lng":"-53.28199312","municipio":"Alto Taquari","uf":"MT","ibge":5100607},{"lat":"-23.87088141","lng":"-53.89197386","municipio":"Altônia","uf":"PR","ibge":4100509},{"lat":"-5.036546434","lng":"-42.46094804","municipio":"Altos","uf":"PI","ibge":2200400},{"lat":"-23.53337305","lng":"-47.25905692","municipio":"Alumínio","uf":"SP","ibge":3501152},{"lat":"-3.216583769","lng":"-64.81353468","municipio":"Alvarães","uf":"AM","ibge":1300029},{"lat":"-19.41446969","lng":"-41.72644227","municipio":"Alvarenga","uf":"MG","ibge":3102209},{"lat":"-20.31987625","lng":"-49.91118481","municipio":"Álvares Florence","uf":"SP","ibge":3501202},{"lat":"-22.077779","lng":"-51.46879727","municipio":"Álvares Machado","uf":"SP","ibge":3501301},{"lat":"-22.07637463","lng":"-49.72060902","municipio":"Álvaro de Carvalho","uf":"SP","ibge":3501400},{"lat":"-22.44501015","lng":"-49.76303303","municipio":"Alvinlândia","uf":"SP","ibge":3501509},{"lat":"-20.11476348","lng":"-43.06608324","municipio":"Alvinópolis","uf":"MG","ibge":3102308},{"lat":"-29.99749306","lng":"-51.07772945","municipio":"Alvorada","uf":"RS","ibge":4300604},{"lat":"-12.47881532","lng":"-49.12681141","municipio":"Alvorada","uf":"TO","ibge":1700707},{"lat":"-18.73359302","lng":"-43.36608434","municipio":"Alvorada de Minas","uf":"MG","ibge":3102407},{"lat":"-8.443959072","lng":"-43.86307158","municipio":"Alvorada do Gurguéia","uf":"PI","ibge":2200459},{"lat":"-14.48283911","lng":"-46.51563769","municipio":"Alvorada do Norte","uf":"GO","ibge":5200803},{"lat":"-22.78037877","lng":"-51.22921633","municipio":"Alvorada do Sul","uf":"PR","ibge":4100806},{"lat":"-11.34413002","lng":"-62.27727487","municipio":"Alvorada D'Oeste","uf":"RO","ibge":1100346},{"lat":"3.652118445","lng":"-61.42059017","municipio":"Amajari","uf":"RR","ibge":1400027},{"lat":"-23.10058224","lng":"-55.24382769","municipio":"Amambai","uf":"MS","ibge":5000609},{"lat":"2.053921245","lng":"-50.79321447","municipio":"Amapá","uf":"AP","ibge":1600105},{"lat":"-1.680921495","lng":"-46.0091799","municipio":"Amapá do Maranhão","uf":"MA","ibge":2100550},{"lat":"-23.09737029","lng":"-52.78678735","municipio":"Amaporã","uf":"PR","ibge":4100905},{"lat":"-8.378487","lng":"-35.45077292","municipio":"Amaraji","uf":"PE","ibge":2600906},{"lat":"-30.8751476","lng":"-52.2512704","municipio":"Amaral Ferrador","uf":"RS","ibge":4300638},{"lat":"-13.92548186","lng":"-49.29537722","municipio":"Amaralina","uf":"GO","ibge":5200829},{"lat":"-6.246610772","lng":"-42.85369282","municipio":"Amarante","uf":"PI","ibge":2200509},{"lat":"-5.557662","lng":"-46.75063755","municipio":"Amarante do Maranhão","uf":"MA","ibge":2100600},{"lat":"-13.03445136","lng":"-39.5981225","municipio":"Amargosa","uf":"BA","ibge":2901007},{"lat":"-3.366805188","lng":"-68.20961464","municipio":"Amaturá","uf":"AM","ibge":1300060},{"lat":"-12.4001884","lng":"-38.75555692","municipio":"Amélia Rodrigues","uf":"BA","ibge":2901106},{"lat":"-11.44964586","lng":"-41.43716328","municipio":"América Dourada","uf":"BA","ibge":2901155},{"lat":"-22.7408835","lng":"-47.33036293","municipio":"Americana","uf":"SP","ibge":3501608},{"lat":"-16.25510029","lng":"-49.98364153","municipio":"Americano do Brasil","uf":"GO","ibge":5200852},{"lat":"-21.7300365","lng":"-48.10660456","municipio":"Américo Brasiliense","uf":"SP","ibge":3501707},{"lat":"-20.29640194","lng":"-49.72702684","municipio":"Américo de Campos","uf":"SP","ibge":3501806},{"lat":"-27.35642547","lng":"-53.19217726","municipio":"Ametista do Sul","uf":"RS","ibge":4300646},{"lat":"-3.364877803","lng":"-39.82882279","municipio":"Amontada","uf":"CE","ibge":2300754},{"lat":"-16.61791212","lng":"-51.09716707","municipio":"Amorinópolis","uf":"GO","ibge":5200902},{"lat":"-7.567211522","lng":"-37.06477525","municipio":"Amparo","uf":"PB","ibge":2500734},{"lat":"-22.69938863","lng":"-46.76508569","municipio":"Amparo","uf":"SP","ibge":3501905},{"lat":"-10.13397103","lng":"-36.92748369","municipio":"Amparo de São Francisco","uf":"SE","ibge":2800100},{"lat":"-20.51006669","lng":"-42.80720215","municipio":"Amparo do Serra","uf":"MG","ibge":3102506},{"lat":"-25.91706847","lng":"-53.47325674","municipio":"Ampére","uf":"PR","ibge":4101002},{"lat":"-9.684083785","lng":"-36.30081357","municipio":"Anadia","uf":"AL","ibge":2700201},{"lat":"-14.61132559","lng":"-41.12711317","municipio":"Anagé","uf":"BA","ibge":2901205},{"lat":"-24.64758246","lng":"-53.13331983","municipio":"Anahy","uf":"PR","ibge":4101051},{"lat":"-0.984451394","lng":"-49.94500104","municipio":"Anajás","uf":"PA","ibge":1500701},{"lat":"-3.257554842","lng":"-44.62067003","municipio":"Anajatuba","uf":"MA","ibge":2100709},{"lat":"-22.1287855","lng":"-47.66076642","municipio":"Analândia","uf":"SP","ibge":3502002},{"lat":"-3.576370427","lng":"-61.40590348","municipio":"Anamã","uf":"AM","ibge":1300086},{"lat":"-6.362818154","lng":"-48.07976461","municipio":"Ananás","uf":"TO","ibge":1701002},{"lat":"-1.368713568","lng":"-48.37206665","municipio":"Ananindeua","uf":"PA","ibge":1500800},{"lat":"-16.32882574","lng":"-48.9572179","municipio":"Anápolis","uf":"GO","ibge":5201108},{"lat":"-3.476104635","lng":"-51.2016218","municipio":"Anapu","uf":"PA","ibge":1500859},{"lat":"-3.667034662","lng":"-43.10579251","municipio":"Anapurus","uf":"MA","ibge":2100808},{"lat":"-20.4823602","lng":"-55.8045706","municipio":"Anastácio","uf":"MS","ibge":5000708},{"lat":"-22.18265027","lng":"-52.71816936","municipio":"Anaurilândia","uf":"MS","ibge":5000807},{"lat":"-26.53568086","lng":"-53.33327018","municipio":"Anchieta","uf":"SC","ibge":4200804},{"lat":"-20.80561322","lng":"-40.64765894","municipio":"Anchieta","uf":"ES","ibge":3200409},{"lat":"-12.80135065","lng":"-41.3246418","municipio":"Andaraí","uf":"BA","ibge":2901304},{"lat":"-23.05175165","lng":"-50.2264076","municipio":"Andirá","uf":"PR","ibge":4101101},{"lat":"-10.34424004","lng":"-39.8323357","municipio":"Andorinha","uf":"BA","ibge":2901353},{"lat":"-22.07280734","lng":"-46.575583","municipio":"Andradas","uf":"MG","ibge":3102605},{"lat":"-20.90146352","lng":"-51.37884779","municipio":"Andradina","uf":"SP","ibge":3502101},{"lat":"-28.6319772","lng":"-51.57373797","municipio":"André da Rocha","uf":"RS","ibge":4300661},{"lat":"-21.7369682","lng":"-44.31769904","municipio":"Andrelândia","uf":"MG","ibge":3102803},{"lat":"-23.483987","lng":"-48.40675962","municipio":"Angatuba","uf":"SP","ibge":3502200},{"lat":"-17.72778983","lng":"-42.26645049","municipio":"Angelândia","uf":"MG","ibge":3102852},{"lat":"-22.15606252","lng":"-53.76973048","municipio":"Angélica","uf":"MS","ibge":5000856},{"lat":"-8.890374208","lng":"-36.28481436","municipio":"Angelim","uf":"PE","ibge":2601003},{"lat":"-27.58225735","lng":"-48.98347606","municipio":"Angelina","uf":"SC","ibge":4200903},{"lat":"-12.00668277","lng":"-44.69582348","municipio":"Angical","uf":"BA","ibge":2901403},{"lat":"-6.087241692","lng":"-42.74386575","municipio":"Angical do Piauí","uf":"PI","ibge":2200608},{"lat":"-6.38775275","lng":"-47.86207784","municipio":"Angico","uf":"TO","ibge":1701051},{"lat":"-5.660365329","lng":"-36.60543287","municipio":"Angicos","uf":"RN","ibge":2400802},{"lat":"-23.00911594","lng":"-44.31962726","municipio":"Angra dos Reis","uf":"RJ","ibge":3300100},{"lat":"-12.14958707","lng":"-39.24849892","municipio":"Anguera","uf":"BA","ibge":2901502},{"lat":"-23.19290387","lng":"-51.91736468","municipio":"Ângulo","uf":"PR","ibge":4101150},{"lat":"-18.33436603","lng":"-48.21740369","municipio":"Anhanguera","uf":"GO","ibge":5201207},{"lat":"-22.78632094","lng":"-48.12692683","municipio":"Anhembi","uf":"SP","ibge":3502309},{"lat":"-22.29323718","lng":"-51.38607442","municipio":"Anhumas","uf":"SP","ibge":3502408},{"lat":"-16.46074062","lng":"-49.95906802","municipio":"Anicuns","uf":"GO","ibge":5201306},{"lat":"-9.174918531","lng":"-43.03485333","municipio":"Anísio de Abreu","uf":"PI","ibge":2200707},{"lat":"-27.68377729","lng":"-51.13119387","municipio":"Anita Garibaldi","uf":"SC","ibge":4201000},{"lat":"-27.9098869","lng":"-49.13159937","municipio":"Anitápolis","uf":"SC","ibge":4201109},{"lat":"-3.745385586","lng":"-61.65895538","municipio":"Anori","uf":"AM","ibge":1300102},{"lat":"-28.97088436","lng":"-52.01582344","municipio":"Anta Gorda","uf":"RS","ibge":4300703},{"lat":"-10.41270217","lng":"-38.33104168","municipio":"Antas","uf":"BA","ibge":2901601},{"lat":"-25.43016613","lng":"-48.71290006","municipio":"Antonina","uf":"PR","ibge":4101200},{"lat":"-6.779687847","lng":"-39.98238684","municipio":"Antonina do Norte","uf":"CE","ibge":2300804},{"lat":"-7.219355834","lng":"-44.19653532","municipio":"Antônio Almeida","uf":"PI","ibge":2200806},{"lat":"-12.43483891","lng":"-39.11866154","municipio":"Antônio Cardoso","uf":"BA","ibge":2901700},{"lat":"-21.31858037","lng":"-43.75564101","municipio":"Antônio Carlos","uf":"MG","ibge":3102902},{"lat":"-27.51337105","lng":"-48.76496003","municipio":"Antônio Carlos","uf":"SC","ibge":4201208},{"lat":"-19.65146667","lng":"-42.86954521","municipio":"Antônio Dias","uf":"MG","ibge":3103009},{"lat":"-10.57579779","lng":"-40.2756587","municipio":"Antônio Gonçalves","uf":"BA","ibge":2901809},{"lat":"-22.19468539","lng":"-55.94808151","municipio":"Antônio João","uf":"MS","ibge":5000906},{"lat":"-6.216004455","lng":"-37.88573457","municipio":"Antônio Martins","uf":"RN","ibge":2400901},{"lat":"-25.98670578","lng":"-50.19794724","municipio":"Antônio Olinto","uf":"PR","ibge":4101309},{"lat":"-28.85543762","lng":"-51.28357692","municipio":"Antônio Prado","uf":"RS","ibge":4300802},{"lat":"-21.01823206","lng":"-42.10934265","municipio":"Antônio Prado de Minas","uf":"MG","ibge":3103108},{"lat":"-22.848154","lng":"-45.22942934","municipio":"Aparecida","uf":"SP","ibge":3502507},{"lat":"-6.783695142","lng":"-38.08333825","municipio":"Aparecida","uf":"PB","ibge":2500775},{"lat":"-16.8221465","lng":"-49.24332593","municipio":"Aparecida de Goiânia","uf":"GO","ibge":5201405},{"lat":"-18.29698429","lng":"-51.15149163","municipio":"Aparecida do Rio Doce","uf":"GO","ibge":5201454},{"lat":"-9.955877715","lng":"-47.97667001","municipio":"Aparecida do Rio Negro","uf":"TO","ibge":1701101},{"lat":"-20.08502151","lng":"-51.09763762","municipio":"Aparecida do Taboado","uf":"MS","ibge":5001003},{"lat":"-20.45084537","lng":"-50.88561571","municipio":"Aparecida d'Oeste","uf":"SP","ibge":3502606},{"lat":"-21.61942177","lng":"-42.10491665","municipio":"Aperibé","uf":"RJ","ibge":3300159},{"lat":"-21.15644789","lng":"-41.56337976","municipio":"Apiacá","uf":"ES","ibge":3200508},{"lat":"-9.565495169","lng":"-57.39540224","municipio":"Apiacás","uf":"MT","ibge":5100805},{"lat":"-24.513316","lng":"-48.8486599","municipio":"Apiaí","uf":"SP","ibge":3502705},{"lat":"-1.530591578","lng":"-45.07665207","municipio":"Apicum-Açu","uf":"MA","ibge":2100832},{"lat":"-27.0418126","lng":"-49.39163763","municipio":"Apiúna","uf":"SC","ibge":4201257},{"lat":"-5.663769819","lng":"-37.79778448","municipio":"Apodi","uf":"RN","ibge":2401008},{"lat":"-11.65539429","lng":"-38.07999535","municipio":"Aporá","uf":"BA","ibge":2901908},{"lat":"-18.95887745","lng":"-51.928073","municipio":"Aporé","uf":"GO","ibge":5201504},{"lat":"-13.85322885","lng":"-39.74213212","municipio":"Apuarema","uf":"BA","ibge":2901957},{"lat":"-23.55159299","lng":"-51.45998514","municipio":"Apucarana","uf":"PR","ibge":4101408},{"lat":"-7.197870152","lng":"-59.8856661","municipio":"Apuí","uf":"AM","ibge":1300144},{"lat":"-3.948018519","lng":"-39.43042278","municipio":"Apuiarés","uf":"CE","ibge":2300903},{"lat":"-10.29251809","lng":"-37.02218086","municipio":"Aquidabã","uf":"SE","ibge":2800209},{"lat":"-20.47465435","lng":"-55.79061609","municipio":"Aquidauana","uf":"MS","ibge":5001102},{"lat":"-3.9061945","lng":"-38.38980296","municipio":"Aquiraz","uf":"CE","ibge":2301000},{"lat":"-27.1574037","lng":"-52.14859926","municipio":"Arabutã","uf":"SC","ibge":4201273},{"lat":"-6.851696617","lng":"-35.38329909","municipio":"Araçagi","uf":"PB","ibge":2500809},{"lat":"-19.20036386","lng":"-44.24692371","municipio":"Araçaí","uf":"MG","ibge":3103207},{"lat":"-10.9072158","lng":"-37.04821264","municipio":"Aracaju","uf":"SE","ibge":2800308},{"lat":"-23.43004085","lng":"-47.07154764","municipio":"Araçariguama","uf":"SP","ibge":3502754},{"lat":"-12.21519967","lng":"-38.19828802","municipio":"Araças","uf":"BA","ibge":2902054},{"lat":"-4.56706647","lng":"-37.7727526","municipio":"Aracati","uf":"CE","ibge":2301109},{"lat":"-14.42663024","lng":"-41.46168532","municipio":"Aracatu","uf":"BA","ibge":2902005},{"lat":"-21.205476","lng":"-50.43922607","municipio":"Araçatuba","uf":"SP","ibge":3502804},{"lat":"-11.33572788","lng":"-38.96095816","municipio":"Araci","uf":"BA","ibge":2902104},{"lat":"-21.33926874","lng":"-43.38155624","municipio":"Aracitaba","uf":"MG","ibge":3103306},{"lat":"-4.370393807","lng":"-38.80944097","municipio":"Aracoiaba","uf":"CE","ibge":2301208},{"lat":"-7.785641873","lng":"-35.09396653","municipio":"Araçoiaba","uf":"PE","ibge":2601052},{"lat":"-23.5073198","lng":"-47.58724294","municipio":"Araçoiaba da Serra","uf":"SP","ibge":3502903},{"lat":"-19.82327774","lng":"-40.27622338","municipio":"Aracruz","uf":"ES","ibge":3200607},{"lat":"-16.35433481","lng":"-49.68168205","municipio":"Araçu","uf":"GO","ibge":5201603},{"lat":"-16.8517814","lng":"-42.06420655","municipio":"Araçuaí","uf":"MG","ibge":3103405},{"lat":"-15.89776817","lng":"-52.24685473","municipio":"Aragarças","uf":"GO","ibge":5201702},{"lat":"-16.9156396","lng":"-49.45090305","municipio":"Aragoiânia","uf":"GO","ibge":5201801},{"lat":"-7.164349271","lng":"-48.52343019","municipio":"Aragominas","uf":"TO","ibge":1701309},{"lat":"-8.801802544","lng":"-49.56181264","municipio":"Araguacema","uf":"TO","ibge":1701903},{"lat":"-12.92558371","lng":"-49.82861244","municipio":"Araguaçu","uf":"TO","ibge":1702000},{"lat":"-15.7312435","lng":"-51.83362165","municipio":"Araguaiana","uf":"MT","ibge":5101001},{"lat":"-7.19132894","lng":"-48.20870525","municipio":"Araguaína","uf":"TO","ibge":1702109},{"lat":"-16.85754554","lng":"-53.03561988","municipio":"Araguainha","uf":"MT","ibge":5101209},{"lat":"-6.58224942","lng":"-48.64374955","municipio":"Araguanã","uf":"TO","ibge":1702158},{"lat":"-2.949125623","lng":"-45.66879448","municipio":"Araguanã","uf":"MA","ibge":2100873},{"lat":"-15.08853037","lng":"-50.63474241","municipio":"Araguapaz","uf":"GO","ibge":5202155},{"lat":"-18.64826953","lng":"-48.19160538","municipio":"Araguari","uf":"MG","ibge":3103504},{"lat":"-5.650586473","lng":"-48.12350734","municipio":"Araguatins","uf":"TO","ibge":1702208},{"lat":"-2.889255846","lng":"-41.89913945","municipio":"Araioses","uf":"MA","ibge":2100907},{"lat":"-22.94788133","lng":"-55.63076145","municipio":"Aral Moreira","uf":"MS","ibge":5001243},{"lat":"-12.08818298","lng":"-38.50306635","municipio":"Aramari","uf":"BA","ibge":2902203},{"lat":"-30.90934555","lng":"-51.50131825","municipio":"Arambaré","uf":"RS","ibge":4300851},{"lat":"-4.886081505","lng":"-46.01363628","municipio":"Arame","uf":"MA","ibge":2100956},{"lat":"-20.08994421","lng":"-47.78601304","municipio":"Aramina","uf":"SP","ibge":3503000},{"lat":"-23.13340712","lng":"-49.05097587","municipio":"Arandu","uf":"SP","ibge":3503109},{"lat":"-21.91610423","lng":"-44.24695425","municipio":"Arantina","uf":"MG","ibge":3103603},{"lat":"-22.67479872","lng":"-44.44810656","municipio":"Arapeí","uf":"SP","ibge":3503158},{"lat":"-9.755907011","lng":"-36.65729651","municipio":"Arapiraca","uf":"AL","ibge":2700300},{"lat":"-7.652569735","lng":"-49.07563739","municipio":"Arapoema","uf":"TO","ibge":1702307},{"lat":"-20.66566173","lng":"-42.5262731","municipio":"Araponga","uf":"MG","ibge":3103702},{"lat":"-23.41351653","lng":"-51.43827973","municipio":"Arapongas","uf":"PR","ibge":4101507},{"lat":"-18.44190938","lng":"-49.19008664","municipio":"Araporã","uf":"MG","ibge":3103751},{"lat":"-24.14656917","lng":"-49.8248285","municipio":"Arapoti","uf":"PR","ibge":4101606},{"lat":"-19.03385529","lng":"-46.15459777","municipio":"Arapuá","uf":"MG","ibge":3103801},{"lat":"-24.30870239","lng":"-51.79131756","municipio":"Arapuã","uf":"PR","ibge":4101655},{"lat":"-15.46814427","lng":"-58.34836715","municipio":"Araputanga","uf":"MT","ibge":5101258},{"lat":"-26.37595155","lng":"-48.69270741","municipio":"Araquari","uf":"SC","ibge":4201307},{"lat":"-6.826191721","lng":"-35.75954172","municipio":"Arara","uf":"PB","ibge":2500908},{"lat":"-28.93575201","lng":"-49.48096652","municipio":"Araranguá","uf":"SC","ibge":4201406},{"lat":"-21.7903595","lng":"-48.17443994","municipio":"Araraquara","uf":"SP","ibge":3503208},{"lat":"-22.35708652","lng":"-47.38582953","municipio":"Araras","uf":"SP","ibge":3503307},{"lat":"-4.751938272","lng":"-40.83109673","municipio":"Ararendá","uf":"CE","ibge":2301257},{"lat":"-3.45917097","lng":"-44.77883465","municipio":"Arari","uf":"MA","ibge":2101004},{"lat":"-29.61724359","lng":"-50.92567661","municipio":"Araricá","uf":"RS","ibge":4300877},{"lat":"-7.206183789","lng":"-40.13744581","municipio":"Araripe","uf":"CE","ibge":2301307},{"lat":"-7.5781415","lng":"-40.50246057","municipio":"Araripina","uf":"PE","ibge":2601102},{"lat":"-22.87743839","lng":"-42.34109602","municipio":"Araruama","uf":"RJ","ibge":3300209},{"lat":"-23.92820095","lng":"-52.4996181","municipio":"Araruna","uf":"PR","ibge":4101705},{"lat":"-6.531447021","lng":"-35.73598051","municipio":"Araruna","uf":"PB","ibge":2501005},{"lat":"-15.260873","lng":"-39.41328157","municipio":"Arataca","uf":"BA","ibge":2902252},{"lat":"-27.39444413","lng":"-52.30383195","municipio":"Aratiba","uf":"RS","ibge":4300901},{"lat":"-4.416930645","lng":"-39.04755456","municipio":"Aratuba","uf":"CE","ibge":2301406},{"lat":"-13.08059654","lng":"-39.00291087","municipio":"Aratuípe","uf":"BA","ibge":2902302},{"lat":"-11.26450478","lng":"-37.61233743","municipio":"Arauá","uf":"SE","ibge":2800407},{"lat":"-25.591645","lng":"-49.4019397","municipio":"Araucária","uf":"PR","ibge":4101804},{"lat":"-19.94678534","lng":"-45.16670228","municipio":"Araújos","uf":"MG","ibge":3103900},{"lat":"-19.5913298","lng":"-46.94000989","municipio":"Araxá","uf":"MG","ibge":3104007},{"lat":"-21.36018148","lng":"-46.94435413","municipio":"Arceburgo","uf":"MG","ibge":3104106},{"lat":"-21.77391403","lng":"-50.46491087","municipio":"Arco-Íris","uf":"SP","ibge":3503356},{"lat":"-20.28256312","lng":"-45.54363187","municipio":"Arcos","uf":"MG","ibge":3104205},{"lat":"-8.4239405","lng":"-37.05650556","municipio":"Arcoverde","uf":"PE","ibge":2601201},{"lat":"-21.35838236","lng":"-46.14655947","municipio":"Areado","uf":"MG","ibge":3104304},{"lat":"-22.236912","lng":"-43.10106981","municipio":"Areal","uf":"RJ","ibge":3300225},{"lat":"-22.0247675","lng":"-48.9204148","municipio":"Arealva","uf":"SP","ibge":3503406},{"lat":"-6.965515","lng":"-35.7033914","municipio":"Areia","uf":"PB","ibge":2501104},{"lat":"-10.75819225","lng":"-37.3133626","municipio":"Areia Branca","uf":"SE","ibge":2800506},{"lat":"-4.952897631","lng":"-37.13127172","municipio":"Areia Branca","uf":"RN","ibge":2401107},{"lat":"-7.123695013","lng":"-36.94350796","municipio":"Areia de Baraúnas","uf":"PB","ibge":2501153},{"lat":"-7.049961089","lng":"-35.92280943","municipio":"Areial","uf":"PB","ibge":2501203},{"lat":"-22.58219389","lng":"-44.69943201","municipio":"Areias","uf":"SP","ibge":3503505},{"lat":"-22.67394045","lng":"-48.66559456","municipio":"Areiópolis","uf":"SP","ibge":3503604},{"lat":"-14.45552167","lng":"-56.84448924","municipio":"Arenápolis","uf":"MT","ibge":5101308},{"lat":"-16.38754562","lng":"-51.56002949","municipio":"Arenópolis","uf":"GO","ibge":5202353},{"lat":"-6.193712274","lng":"-35.1606361","municipio":"Arês","uf":"RN","ibge":2401206},{"lat":"-21.60755451","lng":"-42.83644677","municipio":"Argirita","uf":"MG","ibge":3104403},{"lat":"-17.86776294","lng":"-42.55923105","municipio":"Aricanduva","uf":"MG","ibge":3104452},{"lat":"-15.92177169","lng":"-46.10775214","municipio":"Arinos","uf":"MG","ibge":3104502},{"lat":"-10.1725237","lng":"-59.44861638","municipio":"Aripuanã","uf":"MT","ibge":5101407},{"lat":"-9.908462867","lng":"-63.03326928","municipio":"Ariquemes","uf":"RO","ibge":1100023},{"lat":"-21.18612744","lng":"-48.78833656","municipio":"Ariranha","uf":"SP","ibge":3503703},{"lat":"-24.38328874","lng":"-51.58791784","municipio":"Ariranha do Ivaí","uf":"PR","ibge":4101853},{"lat":"-22.75776379","lng":"-41.88774947","municipio":"Armação dos Búzios","uf":"RJ","ibge":3300233},{"lat":"-28.25870547","lng":"-49.01291108","municipio":"Armazém","uf":"SC","ibge":4201505},{"lat":"-6.319425803","lng":"-40.16144371","municipio":"Arneiroz","uf":"CE","ibge":2301505},{"lat":"-6.112850256","lng":"-41.79745334","municipio":"Aroazes","uf":"PI","ibge":2200905},{"lat":"-7.548462023","lng":"-35.71559295","municipio":"Aroeiras","uf":"PB","ibge":2501302},{"lat":"-7.278745465","lng":"-41.56320442","municipio":"Aroeiras do Itaim","uf":"PI","ibge":2200954},{"lat":"-6.650827027","lng":"-42.53656662","municipio":"Arraial","uf":"PI","ibge":2201002},{"lat":"-22.96763828","lng":"-42.02833597","municipio":"Arraial do Cabo","uf":"RJ","ibge":3300258},{"lat":"-12.93441986","lng":"-46.94610706","municipio":"Arraias","uf":"TO","ibge":1702406},{"lat":"-29.39889072","lng":"-51.94744949","municipio":"Arroio do Meio","uf":"RS","ibge":4301008},{"lat":"-31.44064399","lng":"-52.4333015","municipio":"Arroio do Padre","uf":"RS","ibge":4301073},{"lat":"-29.59296074","lng":"-49.93295752","municipio":"Arroio do Sal","uf":"RS","ibge":4301057},{"lat":"-29.33585961","lng":"-53.08639557","municipio":"Arroio do Tigre","uf":"RS","ibge":4301206},{"lat":"-30.09001311","lng":"-51.73380687","municipio":"Arroio dos Ratos","uf":"RS","ibge":4301107},{"lat":"-32.23634413","lng":"-53.08224835","municipio":"Arroio Grande","uf":"RS","ibge":4301305},{"lat":"-26.93256486","lng":"-51.33412392","municipio":"Arroio Trinta","uf":"SC","ibge":4201604},{"lat":"-22.57134301","lng":"-47.16430115","municipio":"Artur Nogueira","uf":"SP","ibge":3503802},{"lat":"-14.90333238","lng":"-51.08088515","municipio":"Aruanã","uf":"GO","ibge":5202502},{"lat":"-23.39582674","lng":"-46.3204896","municipio":"Arujá","uf":"SP","ibge":3503901},{"lat":"-27.07353356","lng":"-52.45778884","municipio":"Arvoredo","uf":"SC","ibge":4201653},{"lat":"-28.87304939","lng":"-52.17951194","municipio":"Arvorezinha","uf":"RS","ibge":4301404},{"lat":"-26.95477584","lng":"-49.38636343","municipio":"Ascurra","uf":"SC","ibge":4201703},{"lat":"-20.15818999","lng":"-50.72696267","municipio":"Aspásia","uf":"SP","ibge":3503950},{"lat":"-23.37271791","lng":"-50.84162349","municipio":"Assaí","uf":"PR","ibge":4101903},{"lat":"-6.872607112","lng":"-39.87127475","municipio":"Assaré","uf":"CE","ibge":2301604},{"lat":"-22.66283502","lng":"-50.41751004","municipio":"Assis","uf":"SP","ibge":3504008},{"lat":"-10.94286568","lng":"-69.56345917","municipio":"Assis Brasil","uf":"AC","ibge":1200054},{"lat":"-24.40853008","lng":"-53.52123693","municipio":"Assis Chateaubriand","uf":"PR","ibge":4102000},{"lat":"-7.076326944","lng":"-36.73318748","municipio":"Assunção","uf":"PB","ibge":2501351},{"lat":"-5.864914495","lng":"-41.05083","municipio":"Assunção do Piauí","uf":"PI","ibge":2201051},{"lat":"-21.31120385","lng":"-42.85964431","municipio":"Astolfo Dutra","uf":"MG","ibge":3104601},{"lat":"-23.23671197","lng":"-51.66967926","municipio":"Astorga","uf":"PR","ibge":4102109},{"lat":"-23.1515871","lng":"-52.05570114","municipio":"Atalaia","uf":"PR","ibge":4102208},{"lat":"-9.501386747","lng":"-36.02142732","municipio":"Atalaia","uf":"AL","ibge":2700409},{"lat":"-4.36615749","lng":"-70.18798928","municipio":"Atalaia do Norte","uf":"AM","ibge":1300201},{"lat":"-27.420536","lng":"-49.77945667","municipio":"Atalanta","uf":"SC","ibge":4201802},{"lat":"-18.04591981","lng":"-41.11055839","municipio":"Ataléia","uf":"MG","ibge":3104700},{"lat":"-23.116308","lng":"-46.5550625","municipio":"Atibaia","uf":"SP","ibge":3504107},{"lat":"-20.91589662","lng":"-41.19124191","municipio":"Atilio Vivacqua","uf":"ES","ibge":3200706},{"lat":"-5.465414296","lng":"-47.88095679","municipio":"Augustinópolis","uf":"TO","ibge":1702554},{"lat":"-1.02292101","lng":"-46.64164579","municipio":"Augusto Corrêa","uf":"PA","ibge":1500909},{"lat":"-18.1125481","lng":"-44.27521884","municipio":"Augusto de Lima","uf":"MG","ibge":3104809},{"lat":"-28.51335199","lng":"-53.98947008","municipio":"Augusto Pestana","uf":"RS","ibge":4301503},{"lat":"-5.858114424","lng":"-37.30887256","municipio":"Augusto Severo","uf":"RN","ibge":2401305},{"lat":"-27.69378665","lng":"-52.05417567","municipio":"Áurea","uf":"RS","ibge":4301552},{"lat":"-14.31694945","lng":"-39.32199664","municipio":"Aurelino Leal","uf":"BA","ibge":2902401},{"lat":"-20.6873349","lng":"-50.55395933","municipio":"Auriflama","uf":"SP","ibge":3504206},{"lat":"-16.67672529","lng":"-50.46476576","municipio":"Aurilândia","uf":"GO","ibge":5202601},{"lat":"-6.940391832","lng":"-38.97699088","municipio":"Aurora","uf":"CE","ibge":2301703},{"lat":"-27.29902949","lng":"-49.64362791","municipio":"Aurora","uf":"SC","ibge":4201901},{"lat":"-2.129376013","lng":"-47.5561746","municipio":"Aurora do Pará","uf":"PA","ibge":1500958},{"lat":"-12.70848986","lng":"-46.40708298","municipio":"Aurora do Tocantins","uf":"TO","ibge":1702703},{"lat":"-3.578663642","lng":"-59.13356709","municipio":"Autazes","uf":"AM","ibge":1300300},{"lat":"-22.15677212","lng":"-49.33681504","municipio":"Avaí","uf":"SP","ibge":3504305},{"lat":"-21.46087056","lng":"-49.9426973","municipio":"Avanhandava","uf":"SP","ibge":3504404},{"lat":"-23.1031935","lng":"-48.92326319","municipio":"Avaré","uf":"SP","ibge":3504503},{"lat":"-3.605595259","lng":"-55.33073439","municipio":"Aveiro","uf":"PA","ibge":1501006},{"lat":"-10.13474501","lng":"-43.94151014","municipio":"Avelino Lopes","uf":"PI","ibge":2201101},{"lat":"-16.46193869","lng":"-49.75422584","municipio":"Avelinópolis","uf":"GO","ibge":5202809},{"lat":"-2.837796837","lng":"-44.05458581","municipio":"Axixá","uf":"MA","ibge":2101103},{"lat":"-5.624309066","lng":"-47.77415603","municipio":"Axixá do Tocantins","uf":"TO","ibge":1702901},{"lat":"-7.201864532","lng":"-47.75881613","municipio":"Babaçulândia","uf":"TO","ibge":1703008},{"lat":"-4.23152463","lng":"-44.78155596","municipio":"Bacabal","uf":"MA","ibge":2101202},{"lat":"-2.985824779","lng":"-44.31542299","municipio":"Bacabeira","uf":"MA","ibge":2101251},{"lat":"-1.724046318","lng":"-45.13734894","municipio":"Bacuri","uf":"MA","ibge":2101301},{"lat":"-2.710871977","lng":"-44.73574201","municipio":"Bacurituba","uf":"MA","ibge":2101350},{"lat":"-20.91856378","lng":"-49.44857371","municipio":"Bady Bassitt","uf":"SP","ibge":3504602},{"lat":"-21.95761081","lng":"-44.89037066","municipio":"Baependi","uf":"MG","ibge":3104908},{"lat":"-31.33050184","lng":"-54.10708329","municipio":"Bagé","uf":"RS","ibge":4301602},{"lat":"-1.88980806","lng":"-50.22198692","municipio":"Bagre","uf":"PA","ibge":1501105},{"lat":"-6.679529123","lng":"-34.94993109","municipio":"Baía da Traição","uf":"PB","ibge":2501401},{"lat":"-6.369992304","lng":"-35.00903618","municipio":"Baía Formosa","uf":"RN","ibge":2401404},{"lat":"-12.3041247","lng":"-44.53609805","municipio":"Baianópolis","uf":"BA","ibge":2902500},{"lat":"-2.791961861","lng":"-49.67275337","municipio":"Baião","uf":"PA","ibge":1501204},{"lat":"-11.95935749","lng":"-40.16686091","municipio":"Baixa Grande","uf":"BA","ibge":2902609},{"lat":"-7.853351959","lng":"-45.21281529","municipio":"Baixa Grande do Ribeiro","uf":"PI","ibge":2201150},{"lat":"-6.727162049","lng":"-38.72012592","municipio":"Baixio","uf":"CE","ibge":2301802},{"lat":"-19.51424613","lng":"-41.01206774","municipio":"Baixo Guandu","uf":"ES","ibge":3200805},{"lat":"-21.90152378","lng":"-49.3564735","municipio":"Balbinos","uf":"SP","ibge":3504701},{"lat":"-19.2864373","lng":"-43.95704064","municipio":"Baldim","uf":"MG","ibge":3105004},{"lat":"-16.20163667","lng":"-52.54274494","municipio":"Baliza","uf":"GO","ibge":5203104},{"lat":"-28.98040245","lng":"-49.4057028","municipio":"Balneário Arroio do Silva","uf":"SC","ibge":4201950},{"lat":"-26.45642957","lng":"-48.60664588","municipio":"Balneário Barra do Sul","uf":"SC","ibge":4202057},{"lat":"-26.99181861","lng":"-48.63461748","municipio":"Balneário Camboriú","uf":"SC","ibge":4202008},{"lat":"-29.16452127","lng":"-49.59089378","municipio":"Balneário Gaivota","uf":"SC","ibge":4202073},{"lat":"-26.76917054","lng":"-48.67505135","municipio":"Balneário Piçarras","uf":"SC","ibge":4212809},{"lat":"-30.23975093","lng":"-50.23670108","municipio":"Balneário Pinhal","uf":"RS","ibge":4301636},{"lat":"-49.2351","lng":"-28.8314","municipio":"Balneário Rincão","uf":"SC","ibge":4220000},{"lat":"-25.57849781","lng":"-49.63175599","municipio":"Balsa Nova","uf":"PR","ibge":4102307},{"lat":"-20.73826378","lng":"-49.57932769","municipio":"Bálsamo","uf":"SP","ibge":3504800},{"lat":"-7.53116999","lng":"-46.03899267","municipio":"Balsas","uf":"MA","ibge":2101400},{"lat":"-20.01189169","lng":"-45.97904481","municipio":"Bambuí","uf":"MG","ibge":3105103},{"lat":"-5.315047304","lng":"-38.9257848","municipio":"Banabuiú","uf":"CE","ibge":2301851},{"lat":"-22.682616","lng":"-44.32333013","municipio":"Bananal","uf":"SP","ibge":3504909},{"lat":"-6.749637275","lng":"-35.6315999","municipio":"Bananeiras","uf":"PB","ibge":2501500},{"lat":"-15.88497698","lng":"-40.55888642","municipio":"Bandeira","uf":"MG","ibge":3105202},{"lat":"-21.72486854","lng":"-46.38526298","municipio":"Bandeira do Sul","uf":"MG","ibge":3105301},{"lat":"-26.7689379","lng":"-53.64104959","municipio":"Bandeirante","uf":"SC","ibge":4202081},{"lat":"-23.0924805","lng":"-50.37187302","municipio":"Bandeirantes","uf":"PR","ibge":4102406},{"lat":"-19.9209203","lng":"-54.36319389","municipio":"Bandeirantes","uf":"MS","ibge":5001508},{"lat":"-7.764859141","lng":"-48.5783806","municipio":"Bandeirantes do Tocantins","uf":"TO","ibge":1703057},{"lat":"-7.351072192","lng":"-50.40604712","municipio":"Bannach","uf":"PA","ibge":1501253},{"lat":"-10.57409194","lng":"-38.61186963","municipio":"Banzaê","uf":"BA","ibge":2902658},{"lat":"-29.38086407","lng":"-51.49753768","municipio":"Barão","uf":"RS","ibge":4301651},{"lat":"-23.62711052","lng":"-49.5660639","municipio":"Barão de Antonina","uf":"SP","ibge":3505005},{"lat":"-19.93584743","lng":"-43.48488247","municipio":"Barão de Cocais","uf":"MG","ibge":3105400},{"lat":"-27.61709257","lng":"-52.37775033","municipio":"Barão de Cotegipe","uf":"RS","ibge":4301701},{"lat":"-6.758955206","lng":"-43.0264527","municipio":"Barão de Grajaú","uf":"MA","ibge":2101509},{"lat":"-16.19509945","lng":"-55.96712113","municipio":"Barão de Melgaço","uf":"MT","ibge":5101605},{"lat":"-21.24788234","lng":"-42.23914658","municipio":"Barão de Monte Alto","uf":"MG","ibge":3105509},{"lat":"-30.39048385","lng":"-51.73766947","municipio":"Barão do Triunfo","uf":"RS","ibge":4301750},{"lat":"-6.642405035","lng":"-36.25304135","municipio":"Baraúna","uf":"PB","ibge":2501534},{"lat":"-5.076618105","lng":"-37.6181802","municipio":"Baraúna","uf":"RN","ibge":2401453},{"lat":"-21.22491538","lng":"-43.77619332","municipio":"Barbacena","uf":"MG","ibge":3105608},{"lat":"-7.307172127","lng":"-39.30231637","municipio":"Barbalha","uf":"CE","ibge":2301901},{"lat":"-21.25902592","lng":"-49.95398852","municipio":"Barbosa","uf":"SP","ibge":3505104},{"lat":"-24.02771547","lng":"-52.00711669","municipio":"Barbosa Ferraz","uf":"PR","ibge":4102505},{"lat":"-1.505767005","lng":"-48.62707289","municipio":"Barcarena","uf":"PA","ibge":1501303},{"lat":"-5.948131848","lng":"-35.92679453","municipio":"Barcelona","uf":"RN","ibge":2401503},{"lat":"-0.972801053","lng":"-62.92566966","municipio":"Barcelos","uf":"AM","ibge":1300409},{"lat":"-22.071978","lng":"-48.74152477","municipio":"Bariri","uf":"SP","ibge":3505203},{"lat":"-11.08895482","lng":"-43.14363855","municipio":"Barra","uf":"BA","ibge":2902708},{"lat":"-26.6522936","lng":"-53.44130254","municipio":"Barra Bonita","uf":"SC","ibge":4202099},{"lat":"-22.4911455","lng":"-48.56322923","municipio":"Barra Bonita","uf":"SP","ibge":3505302},{"lat":"-13.62020456","lng":"-41.33169587","municipio":"Barra da Estiva","uf":"BA","ibge":2902807},{"lat":"-6.518873072","lng":"-42.10500208","municipio":"Barra D'Alcântara","uf":"PI","ibge":2201176},{"lat":"-8.420935038","lng":"-35.66281889","municipio":"Barra de Guabiraba","uf":"PE","ibge":2601300},{"lat":"-6.720252678","lng":"-36.05977264","municipio":"Barra de Santa Rosa","uf":"PB","ibge":2501609},{"lat":"-7.522833781","lng":"-35.99631408","municipio":"Barra de Santana","uf":"PB","ibge":2501575},{"lat":"-9.409278109","lng":"-35.5002981","municipio":"Barra de Santo Antônio","uf":"AL","ibge":2700508},{"lat":"-18.75908905","lng":"-40.89039862","municipio":"Barra de São Francisco","uf":"ES","ibge":3200904},{"lat":"-7.752670626","lng":"-36.32153597","municipio":"Barra de São Miguel","uf":"PB","ibge":2501708},{"lat":"-9.838998252","lng":"-35.90744987","municipio":"Barra de São Miguel","uf":"AL","ibge":2700607},{"lat":"-15.06625794","lng":"-57.18640869","municipio":"Barra do Bugres","uf":"MT","ibge":5101704},{"lat":"-24.471426","lng":"-49.02713914","municipio":"Barra do Chapéu","uf":"SP","ibge":3505351},{"lat":"-14.86427304","lng":"-40.57637299","municipio":"Barra do Choça","uf":"BA","ibge":2902906},{"lat":"-5.5083395","lng":"-45.23901102","municipio":"Barra do Corda","uf":"MA","ibge":2101608},{"lat":"-15.88871145","lng":"-52.26032976","municipio":"Barra do Garças","uf":"MT","ibge":5101803},{"lat":"-27.18806996","lng":"-53.71441269","municipio":"Barra do Guarita","uf":"RS","ibge":4301859},{"lat":"-23.12059273","lng":"-50.18773676","municipio":"Barra do Jacaré","uf":"PR","ibge":4102703},{"lat":"-11.80882828","lng":"-42.05912842","municipio":"Barra do Mendes","uf":"BA","ibge":2903003},{"lat":"-7.691766599","lng":"-47.68713497","municipio":"Barra do Ouro","uf":"TO","ibge":1703073},{"lat":"-22.46959629","lng":"-43.82845245","municipio":"Barra do Piraí","uf":"RJ","ibge":3300308},{"lat":"-30.21107541","lng":"-57.55706032","municipio":"Barra do Quaraí","uf":"RS","ibge":4301875},{"lat":"-30.2926755","lng":"-51.3008736","municipio":"Barra do Ribeiro","uf":"RS","ibge":4301909},{"lat":"-27.40875772","lng":"-52.41410495","municipio":"Barra do Rio Azul","uf":"RS","ibge":4301925},{"lat":"-14.21002925","lng":"-39.60138609","municipio":"Barra do Rocha","uf":"BA","ibge":2903102},{"lat":"-24.75938666","lng":"-48.50234345","municipio":"Barra do Turvo","uf":"SP","ibge":3505401},{"lat":"-10.90679925","lng":"-37.04124155","municipio":"Barra dos Coqueiros","uf":"SE","ibge":2800605},{"lat":"-27.92382585","lng":"-53.03629667","municipio":"Barra Funda","uf":"RS","ibge":4301958},{"lat":"-20.2836359","lng":"-43.03719671","municipio":"Barra Longa","uf":"MG","ibge":3105707},{"lat":"-22.54530113","lng":"-44.17243137","municipio":"Barra Mansa","uf":"RJ","ibge":3300407},{"lat":"-26.63436141","lng":"-48.68386427","municipio":"Barra Velha","uf":"SC","ibge":4202107},{"lat":"-27.68022987","lng":"-51.46015146","municipio":"Barracão","uf":"RS","ibge":4301800},{"lat":"-26.25260284","lng":"-53.63500027","municipio":"Barracão","uf":"PR","ibge":4102604},{"lat":"-4.243093354","lng":"-42.29533986","municipio":"Barras","uf":"PI","ibge":2201200},{"lat":"-4.288762267","lng":"-38.63850183","municipio":"Barreira","uf":"CE","ibge":2301950},{"lat":"-12.14492489","lng":"-45.00416844","municipio":"Barreiras","uf":"BA","ibge":2903201},{"lat":"-9.921246827","lng":"-45.47778771","municipio":"Barreiras do Piauí","uf":"PI","ibge":2201309},{"lat":"-2.798149837","lng":"-57.06775049","municipio":"Barreirinha","uf":"AM","ibge":1300508},{"lat":"-2.750085949","lng":"-42.82780251","municipio":"Barreirinhas","uf":"MA","ibge":2101707},{"lat":"-8.81413799","lng":"-35.19908599","municipio":"Barreiros","uf":"PE","ibge":2601409},{"lat":"-20.55845552","lng":"-48.56737784","municipio":"Barretos","uf":"SP","ibge":3505500},{"lat":"-21.1917435","lng":"-48.16281352","municipio":"Barrinha","uf":"SP","ibge":3505609},{"lat":"-7.168208727","lng":"-38.77988065","municipio":"Barro","uf":"CE","ibge":2302008},{"lat":"-11.76106392","lng":"-41.91209606","municipio":"Barro Alto","uf":"BA","ibge":2903235},{"lat":"-14.9737086","lng":"-48.91570708","municipio":"Barro Alto","uf":"GO","ibge":5203203},{"lat":"-5.812359708","lng":"-42.51337782","municipio":"Barro Duro","uf":"PI","ibge":2201408},{"lat":"-14.80975439","lng":"-39.47333467","municipio":"Barro Preto","uf":"BA","ibge":2903300},{"lat":"-11.52911285","lng":"-39.07866888","municipio":"Barrocas","uf":"BA","ibge":2903276},{"lat":"-9.831653365","lng":"-48.73146059","municipio":"Barrolândia","uf":"TO","ibge":1703107},{"lat":"-3.009116746","lng":"-41.13948154","municipio":"Barroquinha","uf":"CE","ibge":2302057},{"lat":"-29.08770436","lng":"-52.58775212","municipio":"Barros Cassal","uf":"RS","ibge":4302006},{"lat":"-21.176287","lng":"-43.97538112","municipio":"Barroso","uf":"MG","ibge":3105905},{"lat":"-23.508902","lng":"-46.87465289","municipio":"Barueri","uf":"SP","ibge":3505708},{"lat":"-21.92103747","lng":"-50.73487086","municipio":"Bastos","uf":"SP","ibge":3505807},{"lat":"-21.71528844","lng":"-52.4254366","municipio":"Bataguassu","uf":"MS","ibge":5001904},{"lat":"-4.020412336","lng":"-42.07521873","municipio":"Batalha","uf":"PI","ibge":2201507},{"lat":"-9.674593028","lng":"-37.12709189","municipio":"Batalha","uf":"AL","ibge":2700706},{"lat":"-20.8919295","lng":"-47.58610673","municipio":"Batatais","uf":"SP","ibge":3505906},{"lat":"-22.29587997","lng":"-53.27480699","municipio":"Batayporã","uf":"MS","ibge":5002001},{"lat":"-4.331205156","lng":"-38.88002138","municipio":"Baturité","uf":"CE","ibge":2302107},{"lat":"-22.3251225","lng":"-49.08300087","municipio":"Bauru","uf":"SP","ibge":3506003},{"lat":"-7.132276485","lng":"-34.92918582","municipio":"Bayeux","uf":"PB","ibge":2501807},{"lat":"-20.94981552","lng":"-48.47736217","municipio":"Bebedouro","uf":"SP","ibge":3506102},{"lat":"-4.174763221","lng":"-38.12327304","municipio":"Beberibe","uf":"CE","ibge":2302206},{"lat":"-3.055106724","lng":"-40.16684291","municipio":"Bela Cruz","uf":"CE","ibge":2302305},{"lat":"-22.11597618","lng":"-56.53131457","municipio":"Bela Vista","uf":"MS","ibge":5002100},{"lat":"-25.87949332","lng":"-53.66604263","municipio":"Bela Vista da Caroba","uf":"PR","ibge":4102752},{"lat":"-16.97312144","lng":"-48.9524116","municipio":"Bela Vista de Goiás","uf":"GO","ibge":5203302},{"lat":"-19.82584676","lng":"-43.09693227","municipio":"Bela Vista de Minas","uf":"MG","ibge":3106002},{"lat":"-3.73773325","lng":"-45.24824588","municipio":"Bela Vista do Maranhão","uf":"MA","ibge":2101772},{"lat":"-22.99208753","lng":"-51.19414503","municipio":"Bela Vista do Paraíso","uf":"PR","ibge":4102802},{"lat":"-7.97218532","lng":"-41.87137964","municipio":"Bela Vista do Piauí","uf":"PI","ibge":2201556},{"lat":"-26.27622828","lng":"-50.46478824","municipio":"Bela Vista do Toldo","uf":"SC","ibge":4202131},{"lat":"-3.156772228","lng":"-43.51006164","municipio":"Belágua","uf":"MA","ibge":2101731},{"lat":"-1.459845","lng":"-48.48782569","municipio":"Belém","uf":"PA","ibge":1501402},{"lat":"-6.69404261","lng":"-35.53627408","municipio":"Belém","uf":"PB","ibge":2501906},{"lat":"-9.568648231","lng":"-36.49449799","municipio":"Belém","uf":"AL","ibge":2700805},{"lat":"-8.621201911","lng":"-35.83992409","municipio":"Belém de Maria","uf":"PE","ibge":2601508},{"lat":"-6.188574998","lng":"-37.53950248","municipio":"Belém do Brejo do Cruz","uf":"PB","ibge":2502003},{"lat":"-7.370139616","lng":"-40.97030219","municipio":"Belém do Piauí","uf":"PI","ibge":2201572},{"lat":"-8.75146278","lng":"-38.96159956","municipio":"Belém do São Francisco","uf":"PE","ibge":2601607},{"lat":"-22.76455597","lng":"-43.39962497","municipio":"Belford Roxo","uf":"RJ","ibge":3300456},{"lat":"-21.9501313","lng":"-43.41572077","municipio":"Belmiro Braga","uf":"MG","ibge":3106101},{"lat":"-15.86139649","lng":"-38.88030324","municipio":"Belmonte","uf":"BA","ibge":2903409},{"lat":"-26.84458635","lng":"-53.58097723","municipio":"Belmonte","uf":"SC","ibge":4202156},{"lat":"-15.0334962","lng":"-41.26003348","municipio":"Belo Campo","uf":"BA","ibge":2903508},{"lat":"-19.93752429","lng":"-43.92645317","municipio":"Belo Horizonte","uf":"MG","ibge":3106200},{"lat":"-8.335295439","lng":"-36.42003508","municipio":"Belo Jardim","uf":"PE","ibge":2601706},{"lat":"-9.826988855","lng":"-37.27843866","municipio":"Belo Monte","uf":"AL","ibge":2700904},{"lat":"-19.224645","lng":"-42.4872826","municipio":"Belo Oriente","uf":"MG","ibge":3106309},{"lat":"-20.40665787","lng":"-44.02852765","municipio":"Belo Vale","uf":"MG","ibge":3106408},{"lat":"-2.649020169","lng":"-54.94267474","municipio":"Belterra","uf":"PA","ibge":1501451},{"lat":"-5.44760286","lng":"-42.3706167","municipio":"Beneditinos","uf":"PI","ibge":2201606},{"lat":"-7.218799795","lng":"-44.5598568","municipio":"Benedito Leite","uf":"MA","ibge":2101806},{"lat":"-26.77750757","lng":"-49.36440275","municipio":"Benedito Novo","uf":"SC","ibge":4202206},{"lat":"-1.361437515","lng":"-48.24183645","municipio":"Benevides","uf":"PA","ibge":1501501},{"lat":"-4.374989019","lng":"-70.02734843","municipio":"Benjamin Constant","uf":"AM","ibge":1300607},{"lat":"-27.50858356","lng":"-52.602225","municipio":"Benjamin Constant do Sul","uf":"RS","ibge":4302055},{"lat":"-21.26910802","lng":"-50.81185221","municipio":"Bento de Abreu","uf":"SP","ibge":3506201},{"lat":"-5.692383318","lng":"-35.82169889","municipio":"Bento Fernandes","uf":"RN","ibge":2401602},{"lat":"-29.16740193","lng":"-51.51556031","municipio":"Bento Gonçalves","uf":"RS","ibge":4302105},{"lat":"-2.462062995","lng":"-44.78573016","municipio":"Bequimão","uf":"MA","ibge":2101905},{"lat":"-16.95030176","lng":"-42.46135377","municipio":"Berilo","uf":"MG","ibge":3106507},{"lat":"-15.61078365","lng":"-41.74678509","municipio":"Berizal","uf":"MG","ibge":3106655},{"lat":"-6.453547793","lng":"-38.54886922","municipio":"Bernardino Batista","uf":"PB","ibge":2502052},{"lat":"-23.013553","lng":"-49.47404348","municipio":"Bernardino de Campos","uf":"SP","ibge":3506300},{"lat":"-4.630287491","lng":"-44.7643231","municipio":"Bernardo do Mearim","uf":"MA","ibge":2101939},{"lat":"-7.868512483","lng":"-48.89905435","municipio":"Bernardo Sayão","uf":"TO","ibge":1703206},{"lat":"-23.8540145","lng":"-46.13653834","municipio":"Bertioga","uf":"SP","ibge":3506359},{"lat":"-7.628624763","lng":"-43.95438774","municipio":"Bertolínia","uf":"PI","ibge":2201705},{"lat":"-17.06096281","lng":"-40.57224585","municipio":"Bertópolis","uf":"MG","ibge":3106606},{"lat":"-3.89451341","lng":"-61.37157089","municipio":"Beruri","uf":"AM","ibge":1300631},{"lat":"-8.26984079","lng":"-38.03873814","municipio":"Betânia","uf":"PE","ibge":2601805},{"lat":"-8.145665577","lng":"-40.79662193","municipio":"Betânia do Piauí","uf":"PI","ibge":2201739},{"lat":"-19.96537924","lng":"-44.1975511","municipio":"Betim","uf":"MG","ibge":3106705},{"lat":"-8.2353595","lng":"-35.75448795","municipio":"Bezerros","uf":"PE","ibge":2601904},{"lat":"-21.60874748","lng":"-43.75657483","municipio":"Bias Fortes","uf":"MG","ibge":3106804},{"lat":"-21.72210512","lng":"-43.06204726","municipio":"Bicas","uf":"MG","ibge":3106903},{"lat":"-27.49432274","lng":"-48.65448893","municipio":"Biguaçu","uf":"SC","ibge":4202305},{"lat":"-21.40257114","lng":"-50.48111048","municipio":"Bilac","uf":"SP","ibge":3506409},{"lat":"-18.78475166","lng":"-45.50465172","municipio":"Biquinhas","uf":"MG","ibge":3107000},{"lat":"-21.29239229","lng":"-50.33932852","municipio":"Birigui","uf":"SP","ibge":3506508},{"lat":"-23.57103339","lng":"-46.04121222","municipio":"Biritiba-Mirim","uf":"SP","ibge":3506607},{"lat":"-11.62011026","lng":"-38.81215892","municipio":"Biritinga","uf":"BA","ibge":2903607},{"lat":"-26.16079448","lng":"-51.55652526","municipio":"Bituruna","uf":"PR","ibge":4102901},{"lat":"-26.91610771","lng":"-49.05763088","municipio":"Blumenau","uf":"SC","ibge":4202404},{"lat":"-21.09053108","lng":"-45.56440893","municipio":"Boa Esperança","uf":"MG","ibge":3107109},{"lat":"-24.23949316","lng":"-52.79277746","municipio":"Boa Esperança","uf":"PR","ibge":4103008},{"lat":"-18.53871516","lng":"-40.30295564","municipio":"Boa Esperança","uf":"ES","ibge":3201001},{"lat":"-25.63587316","lng":"-53.21716007","municipio":"Boa Esperança do Iguaçu","uf":"PR","ibge":4103024},{"lat":"-21.99248416","lng":"-48.39059691","municipio":"Boa Esperança do Sul","uf":"SP","ibge":3506706},{"lat":"-4.409009606","lng":"-42.12529574","municipio":"Boa Hora","uf":"PI","ibge":2201770},{"lat":"-14.36260794","lng":"-40.20052189","municipio":"Boa Nova","uf":"BA","ibge":2903706},{"lat":"-7.422282145","lng":"-38.21895088","municipio":"Boa Ventura","uf":"PB","ibge":2502102},{"lat":"-24.87851759","lng":"-51.53937384","municipio":"Boa Ventura de São Roque","uf":"PR","ibge":4103040},{"lat":"-5.12574387","lng":"-39.73328234","municipio":"Boa Viagem","uf":"CE","ibge":2302404},{"lat":"2.816681919","lng":"-60.67053267","municipio":"Boa Vista","uf":"RR","ibge":1400100},{"lat":"-7.257913081","lng":"-36.23537366","municipio":"Boa Vista","uf":"PB","ibge":2502151},{"lat":"-25.43040494","lng":"-53.41173649","municipio":"Boa Vista da Aparecida","uf":"PR","ibge":4103057},{"lat":"-27.66611104","lng":"-53.31275639","municipio":"Boa Vista das Missões","uf":"RS","ibge":4302154},{"lat":"-27.671567","lng":"-54.10948126","municipio":"Boa Vista do Buricá","uf":"RS","ibge":4302204},{"lat":"-28.57743448","lng":"-53.81373464","municipio":"Boa Vista do Cadeado","uf":"RS","ibge":4302220},{"lat":"-1.793296136","lng":"-46.29871005","municipio":"Boa Vista do Gurupi","uf":"MA","ibge":2101970},{"lat":"-28.81848803","lng":"-53.38870496","municipio":"Boa Vista do Incra","uf":"RS","ibge":4302238},{"lat":"-2.971726532","lng":"-57.58770735","municipio":"Boa Vista do Ramos","uf":"AM","ibge":1300680},{"lat":"-29.35011937","lng":"-51.67727184","municipio":"Boa Vista do Sul","uf":"RS","ibge":4302253},{"lat":"-12.66132219","lng":"-40.60574282","municipio":"Boa Vista do Tupim","uf":"BA","ibge":2903805},{"lat":"-9.645144567","lng":"-36.2117249","municipio":"Boca da Mata","uf":"AL","ibge":2701001},{"lat":"-8.751243196","lng":"-67.39957776","municipio":"Boca do Acre","uf":"AM","ibge":1300706},{"lat":"-22.13392255","lng":"-48.52049362","municipio":"Bocaina","uf":"SP","ibge":3506805},{"lat":"-6.954842333","lng":"-41.32234068","municipio":"Bocaina","uf":"PI","ibge":2201804},{"lat":"-22.16960847","lng":"-44.39730576","municipio":"Bocaina de Minas","uf":"MG","ibge":3107208},{"lat":"-27.74319831","lng":"-49.94589791","municipio":"Bocaina do Sul","uf":"SC","ibge":4202438},{"lat":"-17.11210473","lng":"-43.81444357","municipio":"Bocaiúva","uf":"MG","ibge":3107307},{"lat":"-25.21490158","lng":"-49.10578748","municipio":"Bocaiúva do Sul","uf":"PR","ibge":4103107},{"lat":"-5.98804525","lng":"-36.4138377","municipio":"Bodó","uf":"RN","ibge":2401651},{"lat":"-7.779342627","lng":"-39.93616319","municipio":"Bodocó","uf":"PE","ibge":2602001},{"lat":"-20.5548427","lng":"-56.6735673","municipio":"Bodoquena","uf":"MS","ibge":5002159},{"lat":"-23.10252","lng":"-48.26003306","municipio":"Bofete","uf":"SP","ibge":3506904},{"lat":"-23.281944","lng":"-47.6714735","municipio":"Boituva","uf":"SP","ibge":3507001},{"lat":"-9.163382985","lng":"-36.67931439","municipio":"Bom Conselho","uf":"PE","ibge":2602100},{"lat":"-19.73759633","lng":"-45.2541152","municipio":"Bom Despacho","uf":"MG","ibge":3107406},{"lat":"-22.15330523","lng":"-42.41721148","municipio":"Bom Jardim","uf":"RJ","ibge":3300506},{"lat":"-7.799512181","lng":"-35.5871395","municipio":"Bom Jardim","uf":"PE","ibge":2602209},{"lat":"-3.544160978","lng":"-45.60188939","municipio":"Bom Jardim","uf":"MA","ibge":2102002},{"lat":"-28.33794719","lng":"-49.62497775","municipio":"Bom Jardim da Serra","uf":"SC","ibge":4202503},{"lat":"-16.20068503","lng":"-52.17536757","municipio":"Bom Jardim de Goiás","uf":"GO","ibge":5203401},{"lat":"-21.94589978","lng":"-44.18937446","municipio":"Bom Jardim de Minas","uf":"MG","ibge":3107505},{"lat":"-28.67057768","lng":"-50.43334927","municipio":"Bom Jesus","uf":"RS","ibge":4302303},{"lat":"-26.73592344","lng":"-52.39301596","municipio":"Bom Jesus","uf":"SC","ibge":4202537},{"lat":"-5.986318852","lng":"-35.58880329","municipio":"Bom Jesus","uf":"RN","ibge":2401701},{"lat":"-9.070948984","lng":"-44.36052508","municipio":"Bom Jesus","uf":"PI","ibge":2201903},{"lat":"-6.817957651","lng":"-38.65514281","municipio":"Bom Jesus","uf":"PB","ibge":2502201},{"lat":"-13.25411437","lng":"-43.41714164","municipio":"Bom Jesus da Lapa","uf":"BA","ibge":2903904},{"lat":"-21.01726931","lng":"-46.52354361","municipio":"Bom Jesus da Penha","uf":"MG","ibge":3107604},{"lat":"-14.37292229","lng":"-40.50117633","municipio":"Bom Jesus da Serra","uf":"BA","ibge":2903953},{"lat":"-4.489968353","lng":"-46.85324122","municipio":"Bom Jesus das Selvas","uf":"MA","ibge":2102036},{"lat":"-18.21476651","lng":"-49.73941065","municipio":"Bom Jesus de Goiás","uf":"GO","ibge":5203500},{"lat":"-19.70413727","lng":"-43.47351492","municipio":"Bom Jesus do Amparo","uf":"MG","ibge":3107703},{"lat":"-12.17359834","lng":"-51.50363923","municipio":"Bom Jesus do Araguaia","uf":"MT","ibge":5101852},{"lat":"-19.82447204","lng":"-42.31572655","municipio":"Bom Jesus do Galho","uf":"MG","ibge":3107802},{"lat":"-21.13449744","lng":"-41.67767979","municipio":"Bom Jesus do Itabapoana","uf":"RJ","ibge":3300605},{"lat":"-21.12934179","lng":"-41.67581051","municipio":"Bom Jesus do Norte","uf":"ES","ibge":3201100},{"lat":"-26.69181155","lng":"-53.09535028","municipio":"Bom Jesus do Oeste","uf":"SC","ibge":4202578},{"lat":"-26.19287497","lng":"-53.59959997","municipio":"Bom Jesus do Sul","uf":"PR","ibge":4103156},{"lat":"-5.047362704","lng":"-48.59903996","municipio":"Bom Jesus do Tocantins","uf":"PA","ibge":1501576},{"lat":"-8.963348013","lng":"-48.16638049","municipio":"Bom Jesus do Tocantins","uf":"TO","ibge":1703305},{"lat":"-23.13083743","lng":"-46.46649284","municipio":"Bom Jesus dos Perdões","uf":"SP","ibge":3507100},{"lat":"-4.375509601","lng":"-45.03110786","municipio":"Bom Lugar","uf":"MA","ibge":2102077},{"lat":"-29.49448511","lng":"-51.3555191","municipio":"Bom Princípio","uf":"RS","ibge":4302352},{"lat":"-3.189858688","lng":"-41.64520957","municipio":"Bom Princípio do Piauí","uf":"PI","ibge":2201919},{"lat":"-27.5467742","lng":"-53.86679089","municipio":"Bom Progresso","uf":"RS","ibge":4302378},{"lat":"-22.47683683","lng":"-46.1478822","municipio":"Bom Repouso","uf":"MG","ibge":3107901},{"lat":"-27.798671","lng":"-49.48983377","municipio":"Bom Retiro","uf":"SC","ibge":4202602},{"lat":"-29.60742262","lng":"-51.94384677","municipio":"Bom Retiro do Sul","uf":"RS","ibge":4302402},{"lat":"-21.03041609","lng":"-44.75550272","municipio":"Bom Sucesso","uf":"MG","ibge":3108008},{"lat":"-23.70743702","lng":"-51.76446544","municipio":"Bom Sucesso","uf":"PR","ibge":4103206},{"lat":"-6.445046723","lng":"-37.9300237","municipio":"Bom Sucesso","uf":"PB","ibge":2502300},{"lat":"-24.31826284","lng":"-49.14376192","municipio":"Bom Sucesso de Itararé","uf":"SP","ibge":3507159},{"lat":"-26.07453714","lng":"-52.83197627","municipio":"Bom Sucesso do Sul","uf":"PR","ibge":4103222},{"lat":"-27.1442547","lng":"-48.52134513","municipio":"Bombinhas","uf":"SC","ibge":4202453},{"lat":"-20.3254911","lng":"-44.23291108","municipio":"Bonfim","uf":"MG","ibge":3108107},{"lat":"3.350288619","lng":"-59.87800663","municipio":"Bonfim","uf":"RR","ibge":1400159},{"lat":"-9.166560539","lng":"-42.87966307","municipio":"Bonfim do Piauí","uf":"PI","ibge":2201929},{"lat":"-16.61752843","lng":"-48.97057994","municipio":"Bonfinópolis","uf":"GO","ibge":5203559},{"lat":"-16.57076479","lng":"-45.98834066","municipio":"Bonfinópolis de Minas","uf":"MG","ibge":3108206},{"lat":"-12.71512079","lng":"-41.82432848","municipio":"Boninal","uf":"BA","ibge":2904001},{"lat":"-11.9695725","lng":"-41.26840279","municipio":"Bonito","uf":"BA","ibge":2904050},{"lat":"-8.4722605","lng":"-35.72852793","municipio":"Bonito","uf":"PE","ibge":2602308},{"lat":"-1.367474357","lng":"-47.30589182","municipio":"Bonito","uf":"PA","ibge":1501600},{"lat":"-21.12434128","lng":"-56.49285862","municipio":"Bonito","uf":"MS","ibge":5002209},{"lat":"-15.32380447","lng":"-44.75802844","municipio":"Bonito de Minas","uf":"MG","ibge":3108255},{"lat":"-7.310763082","lng":"-38.51649531","municipio":"Bonito de Santa Fé","uf":"PB","ibge":2502409},{"lat":"-13.64974655","lng":"-49.8371838","municipio":"Bonópolis","uf":"GO","ibge":5203575},{"lat":"-7.48264792","lng":"-36.13340475","municipio":"Boqueirão","uf":"PB","ibge":2502508},{"lat":"-29.30515792","lng":"-52.42805026","municipio":"Boqueirão do Leão","uf":"RS","ibge":4302451},{"lat":"-4.485819632","lng":"-42.10362713","municipio":"Boqueirão do Piauí","uf":"PI","ibge":2201945},{"lat":"-11.14639163","lng":"-37.62357348","municipio":"Boquim","uf":"SE","ibge":2800670},{"lat":"-12.82082283","lng":"-42.7301154","municipio":"Boquira","uf":"BA","ibge":2904100},{"lat":"-22.27011711","lng":"-50.544881","municipio":"Borá","uf":"SP","ibge":3507209},{"lat":"-22.19320565","lng":"-48.77921828","municipio":"Boracéia","uf":"SP","ibge":3507308},{"lat":"-4.390619891","lng":"-59.59455902","municipio":"Borba","uf":"AM","ibge":1300805},{"lat":"-6.804305883","lng":"-35.59937597","municipio":"Borborema","uf":"PB","ibge":2502706},{"lat":"-21.62153799","lng":"-49.07264025","municipio":"Borborema","uf":"SP","ibge":3507407},{"lat":"-22.27240826","lng":"-46.16716824","municipio":"Borda da Mata","uf":"MG","ibge":3108305},{"lat":"-22.56783312","lng":"-48.97159584","municipio":"Borebi","uf":"SP","ibge":3507456},{"lat":"-23.93785419","lng":"-51.5844091","municipio":"Borrazópolis","uf":"PR","ibge":4103305},{"lat":"-28.73072433","lng":"-54.90981093","municipio":"Bossoroca","uf":"RS","ibge":4302501},{"lat":"-21.65166388","lng":"-46.39549315","municipio":"Botelhos","uf":"MG","ibge":3108404},{"lat":"-22.8883815","lng":"-48.44128938","municipio":"Botucatu","uf":"SP","ibge":3507506},{"lat":"-16.86292455","lng":"-43.01043244","municipio":"Botumirim","uf":"MG","ibge":3108503},{"lat":"-13.38086621","lng":"-42.52927756","municipio":"Botuporã","uf":"BA","ibge":2904209},{"lat":"-27.20210686","lng":"-49.07848436","municipio":"Botuverá","uf":"SC","ibge":4202701},{"lat":"-28.36628994","lng":"-53.77240214","municipio":"Bozano","uf":"RS","ibge":4302584},{"lat":"-28.28003887","lng":"-49.16454771","municipio":"Braço do Norte","uf":"SC","ibge":4202800},{"lat":"-27.36425135","lng":"-49.89090794","municipio":"Braço do Trombudo","uf":"SC","ibge":4202859},{"lat":"-27.61919251","lng":"-53.74432938","municipio":"Braga","uf":"RS","ibge":4302600},{"lat":"-1.053523956","lng":"-46.76575421","municipio":"Bragança","uf":"PA","ibge":1501709},{"lat":"-22.9568955","lng":"-46.54233337","municipio":"Bragança Paulista","uf":"SP","ibge":3507605},{"lat":"-24.81489463","lng":"-53.12107366","municipio":"Braganey","uf":"PR","ibge":4103354},{"lat":"-9.246583108","lng":"-36.02003353","municipio":"Branquinha","uf":"AL","ibge":2701100},{"lat":"-20.84845644","lng":"-43.2391226","municipio":"Brás Pires","uf":"MG","ibge":3108701},{"lat":"-3.297803704","lng":"-52.54344119","municipio":"Brasil Novo","uf":"PA","ibge":1501725},{"lat":"-21.24711814","lng":"-52.03629679","municipio":"Brasilândia","uf":"MS","ibge":5002308},{"lat":"-16.99860055","lng":"-46.01540176","municipio":"Brasilândia de Minas","uf":"MG","ibge":3108552},{"lat":"-24.19384628","lng":"-53.52404181","municipio":"Brasilândia do Sul","uf":"PR","ibge":4103370},{"lat":"-8.384889351","lng":"-48.48537442","municipio":"Brasilândia do Tocantins","uf":"TO","ibge":1703602},{"lat":"-11.01641102","lng":"-68.74794343","municipio":"Brasiléia","uf":"AC","ibge":1200104},{"lat":"-4.137829108","lng":"-41.78925964","municipio":"Brasileira","uf":"PI","ibge":2201960},{"lat":"-15.79408736","lng":"-47.88790548","municipio":"Brasília","uf":"DF","ibge":5300108},{"lat":"-16.20587269","lng":"-44.42753309","municipio":"Brasília de Minas","uf":"MG","ibge":3108602},{"lat":"-12.12493814","lng":"-58.00267363","municipio":"Brasnorte","uf":"MT","ibge":5101902},{"lat":"-22.47311024","lng":"-45.61532582","municipio":"Brasópolis","uf":"MG","ibge":3108909},{"lat":"-21.50102121","lng":"-50.31816561","municipio":"Braúna","uf":"SP","ibge":3507704},{"lat":"-19.05359662","lng":"-42.71535264","municipio":"Braúnas","uf":"MG","ibge":3108800},{"lat":"-16.42571494","lng":"-49.38866727","municipio":"Brazabrantes","uf":"GO","ibge":5203609},{"lat":"-9.027249151","lng":"-36.56469666","municipio":"Brejão","uf":"PE","ibge":2602407},{"lat":"-20.15703419","lng":"-41.28967653","municipio":"Brejetuba","uf":"ES","ibge":3201159},{"lat":"-7.345671276","lng":"-37.28733455","municipio":"Brejinho","uf":"PE","ibge":2602506},{"lat":"-6.192579059","lng":"-35.35735405","municipio":"Brejinho","uf":"RN","ibge":2401800},{"lat":"-11.01080506","lng":"-48.55866023","municipio":"Brejinho de Nazaré","uf":"TO","ibge":1703701},{"lat":"-3.679178","lng":"-42.75084783","municipio":"Brejo","uf":"MA","ibge":2102101},{"lat":"-21.1661285","lng":"-50.18725851","municipio":"Brejo Alegre","uf":"SP","ibge":3507753},{"lat":"-8.1489565","lng":"-36.37039144","municipio":"Brejo da Madre de Deus","uf":"PE","ibge":2602605},{"lat":"-4.330629897","lng":"-45.58209527","municipio":"Brejo de Areia","uf":"MA","ibge":2102150},{"lat":"-6.347707607","lng":"-37.50016264","municipio":"Brejo do Cruz","uf":"PB","ibge":2502805},{"lat":"-8.207064766","lng":"-42.83030181","municipio":"Brejo do Piauí","uf":"PI","ibge":2201988},{"lat":"-6.376183308","lng":"-37.82371018","municipio":"Brejo dos Santos","uf":"PB","ibge":2502904},{"lat":"-10.41894331","lng":"-36.47182024","municipio":"Brejo Grande","uf":"SE","ibge":2800704},{"lat":"-5.707296154","lng":"-48.40576042","municipio":"Brejo Grande do Araguaia","uf":"PA","ibge":1501758},{"lat":"-7.491638009","lng":"-38.98551387","municipio":"Brejo Santo","uf":"CE","ibge":2302503},{"lat":"-13.10553648","lng":"-39.79349159","municipio":"Brejões","uf":"BA","ibge":2904308},{"lat":"-12.48669334","lng":"-43.96566459","municipio":"Brejolândia","uf":"BA","ibge":2904407},{"lat":"-3.778135413","lng":"-49.56987968","municipio":"Breu Branco","uf":"PA","ibge":1501782},{"lat":"-1.6907365","lng":"-50.4808948","municipio":"Breves","uf":"PA","ibge":1501808},{"lat":"-15.23858629","lng":"-51.1672851","municipio":"Britânia","uf":"GO","ibge":5203807},{"lat":"-29.55552796","lng":"-51.58891597","municipio":"Brochier","uf":"RS","ibge":4302659},{"lat":"-20.99014038","lng":"-47.65639796","municipio":"Brodowski","uf":"SP","ibge":3507803},{"lat":"-22.28651699","lng":"-48.12683332","municipio":"Brotas","uf":"SP","ibge":3507902},{"lat":"-12.00263554","lng":"-42.62469129","municipio":"Brotas de Macaúbas","uf":"BA","ibge":2904506},{"lat":"-20.14417441","lng":"-44.20018761","municipio":"Brumadinho","uf":"MG","ibge":3109006},{"lat":"-14.20543824","lng":"-41.6670695","municipio":"Brumado","uf":"BA","ibge":2904605},{"lat":"-27.31836215","lng":"-50.83592077","municipio":"Brunópolis","uf":"SC","ibge":4202875},{"lat":"-27.09831023","lng":"-48.91516301","municipio":"Brusque","uf":"SC","ibge":4202909},{"lat":"-22.43616701","lng":"-46.35338809","municipio":"Bueno Brandão","uf":"MG","ibge":3109105},{"lat":"-17.87425628","lng":"-44.18078846","municipio":"Buenópolis","uf":"MG","ibge":3109204},{"lat":"-7.72437221","lng":"-35.32957041","municipio":"Buenos Aires","uf":"PE","ibge":2602704},{"lat":"-14.95644084","lng":"-39.30251961","municipio":"Buerarema","uf":"BA","ibge":2904704},{"lat":"-19.42221268","lng":"-42.25945701","municipio":"Bugre","uf":"MG","ibge":3109253},{"lat":"-8.622059041","lng":"-37.15698811","municipio":"Buíque","uf":"PE","ibge":2602803},{"lat":"-9.820019627","lng":"-67.95185928","municipio":"Bujari","uf":"AC","ibge":1200138},{"lat":"-1.513991462","lng":"-48.03587501","municipio":"Bujaru","uf":"PA","ibge":1501907},{"lat":"-23.79938142","lng":"-48.59741497","municipio":"Buri","uf":"SP","ibge":3508009},{"lat":"-21.06703957","lng":"-50.14928125","municipio":"Buritama","uf":"SP","ibge":3508108},{"lat":"-3.9455715","lng":"-42.92510618","municipio":"Buriti","uf":"MA","ibge":2102200},{"lat":"-18.13305505","lng":"-49.04006514","municipio":"Buriti Alegre","uf":"GO","ibge":5203906},{"lat":"-5.835288132","lng":"-43.83562154","municipio":"Buriti Bravo","uf":"MA","ibge":2102309},{"lat":"-16.18139698","lng":"-50.43443476","municipio":"Buriti de Goiás","uf":"GO","ibge":5203939},{"lat":"-5.313538856","lng":"-48.22325013","municipio":"Buriti do Tocantins","uf":"TO","ibge":1703800},{"lat":"-3.172721335","lng":"-41.86990885","municipio":"Buriti dos Lopes","uf":"PI","ibge":2202000},{"lat":"-5.312066783","lng":"-41.10185139","municipio":"Buriti dos Montes","uf":"PI","ibge":2202026},{"lat":"-4.325947726","lng":"-46.45149532","municipio":"Buriticupu","uf":"MA","ibge":2102325},{"lat":"-14.45602303","lng":"-46.43107711","municipio":"Buritinópolis","uf":"GO","ibge":5203962},{"lat":"-10.71179147","lng":"-43.6313809","municipio":"Buritirama","uf":"BA","ibge":2904753},{"lat":"-5.588915142","lng":"-47.01722509","municipio":"Buritirana","uf":"MA","ibge":2102358},{"lat":"-15.62650549","lng":"-46.4240408","municipio":"Buritis","uf":"MG","ibge":3109303},{"lat":"-10.20980541","lng":"-63.82967879","municipio":"Buritis","uf":"RO","ibge":1100452},{"lat":"-20.19314822","lng":"-47.70886004","municipio":"Buritizal","uf":"SP","ibge":3508207},{"lat":"-17.35942077","lng":"-44.95519368","municipio":"Buritizeiro","uf":"MG","ibge":3109402},{"lat":"-30.11614401","lng":"-51.96148295","municipio":"Butiá","uf":"RS","ibge":4302709},{"lat":"-3.330093392","lng":"-61.21133413","municipio":"Caapiranga","uf":"AM","ibge":1300839},{"lat":"-7.514287641","lng":"-34.91785014","municipio":"Caaporã","uf":"PB","ibge":2503001},{"lat":"-22.63658222","lng":"-54.8269701","municipio":"Caarapó","uf":"MS","ibge":5002407},{"lat":"-14.97855064","lng":"-40.41027248","municipio":"Caatiba","uf":"BA","ibge":2904803},{"lat":"-7.490669874","lng":"-36.28434189","municipio":"Cabaceiras","uf":"PB","ibge":2503100},{"lat":"-12.53713579","lng":"-39.18671309","municipio":"Cabaceiras do Paraguaçu","uf":"BA","ibge":2904852},{"lat":"-16.0282748","lng":"-47.08498931","municipio":"Cabeceira Grande","uf":"MG","ibge":3109451},{"lat":"-15.80115588","lng":"-46.92947619","municipio":"Cabeceiras","uf":"GO","ibge":5204003},{"lat":"-4.471331294","lng":"-42.30831607","municipio":"Cabeceiras do Piauí","uf":"PI","ibge":2202059},{"lat":"-6.966983063","lng":"-34.83943002","municipio":"Cabedelo","uf":"PB","ibge":2503209},{"lat":"-13.49976346","lng":"-60.54431358","municipio":"Cabixi","uf":"RO","ibge":1100031},{"lat":"-8.28986423","lng":"-35.03848897","municipio":"Cabo de Santo Agostinho","uf":"PE","ibge":2602902},{"lat":"-22.88076467","lng":"-42.0200748","municipio":"Cabo Frio","uf":"RJ","ibge":3300704},{"lat":"-21.46929195","lng":"-46.3999705","municipio":"Cabo Verde","uf":"MG","ibge":3109501},{"lat":"-22.45508696","lng":"-49.33244683","municipio":"Cabrália Paulista","uf":"SP","ibge":3508306},{"lat":"-23.31267439","lng":"-47.13365837","municipio":"Cabreúva","uf":"SP","ibge":3508405},{"lat":"-8.515105483","lng":"-39.30984134","municipio":"Cabrobó","uf":"PE","ibge":2603009},{"lat":"-26.77534767","lng":"-51.01903476","municipio":"Caçador","uf":"SC","ibge":4203006},{"lat":"-23.10066375","lng":"-45.70773037","municipio":"Caçapava","uf":"SP","ibge":3508504},{"lat":"-30.51474323","lng":"-53.48756892","municipio":"Caçapava do Sul","uf":"RS","ibge":4302808},{"lat":"-10.33887284","lng":"-62.90318993","municipio":"Cacaulândia","uf":"RO","ibge":1100601},{"lat":"-29.88028766","lng":"-54.82772769","municipio":"Cacequi","uf":"RS","ibge":4302907},{"lat":"-16.07409563","lng":"-57.67476231","municipio":"Cáceres","uf":"MT","ibge":5102504},{"lat":"-12.5962108","lng":"-38.96939807","municipio":"Cachoeira","uf":"BA","ibge":2904902},{"lat":"-18.75100446","lng":"-50.94470784","municipio":"Cachoeira Alta","uf":"GO","ibge":5204102},{"lat":"-19.52643533","lng":"-44.44105095","municipio":"Cachoeira da Prata","uf":"MG","ibge":3109600},{"lat":"-16.6667328","lng":"-50.64314784","municipio":"Cachoeira de Goiás","uf":"GO","ibge":5204201},{"lat":"-22.35398406","lng":"-45.78213751","municipio":"Cachoeira de Minas","uf":"MG","ibge":3109709},{"lat":"-15.96517584","lng":"-41.49641037","municipio":"Cachoeira de Pajeú","uf":"MG","ibge":3102704},{"lat":"-1.008786266","lng":"-48.96066758","municipio":"Cachoeira do Arari","uf":"PA","ibge":1502004},{"lat":"-1.752897005","lng":"-46.54739142","municipio":"Cachoeira do Piriá","uf":"PA","ibge":1501956},{"lat":"-30.04581998","lng":"-52.89341256","municipio":"Cachoeira do Sul","uf":"RS","ibge":4303004},{"lat":"-6.923935853","lng":"-38.67830319","municipio":"Cachoeira dos Índios","uf":"PB","ibge":2503308},{"lat":"-18.51268982","lng":"-49.50173413","municipio":"Cachoeira Dourada","uf":"MG","ibge":3109808},{"lat":"-18.48903561","lng":"-49.47091766","municipio":"Cachoeira Dourada","uf":"GO","ibge":5204250},{"lat":"-2.931921039","lng":"-44.05968502","municipio":"Cachoeira Grande","uf":"MA","ibge":2102374},{"lat":"-22.66475438","lng":"-45.01063041","municipio":"Cachoeira Paulista","uf":"SP","ibge":3508603},{"lat":"-22.46757087","lng":"-42.66316436","municipio":"Cachoeiras de Macacu","uf":"RJ","ibge":3300803},{"lat":"-29.95062944","lng":"-51.09367695","municipio":"Cachoeirinha","uf":"RS","ibge":4303103},{"lat":"-8.486831073","lng":"-36.23599141","municipio":"Cachoeirinha","uf":"PE","ibge":2603108},{"lat":"-6.113241647","lng":"-47.91419778","municipio":"Cachoeirinha","uf":"TO","ibge":1703826},{"lat":"-20.85011235","lng":"-41.11191881","municipio":"Cachoeiro de Itapemirim","uf":"ES","ibge":3201209},{"lat":"-7.128473377","lng":"-37.15821695","municipio":"Cacimba de Areia","uf":"PB","ibge":2503407},{"lat":"-6.640016747","lng":"-35.7928209","municipio":"Cacimba de Dentro","uf":"PB","ibge":2503506},{"lat":"-7.212359303","lng":"-37.06040211","municipio":"Cacimbas","uf":"PB","ibge":2503555},{"lat":"-9.405162751","lng":"-36.99686963","municipio":"Cacimbinhas","uf":"AL","ibge":2701209},{"lat":"-27.76823247","lng":"-51.66411345","municipio":"Cacique Doble","uf":"RS","ibge":4303202},{"lat":"-11.43386503","lng":"-61.44294421","municipio":"Cacoal","uf":"RO","ibge":1100049},{"lat":"-21.52873804","lng":"-46.64683488","municipio":"Caconde","uf":"SP","ibge":3508702},{"lat":"-18.56305062","lng":"-51.13352861","municipio":"Caçu","uf":"GO","ibge":5204300},{"lat":"-14.5042062","lng":"-42.2214141","municipio":"Caculé","uf":"BA","ibge":2905008},{"lat":"-11.09309152","lng":"-40.43731194","municipio":"Caém","uf":"BA","ibge":2905107},{"lat":"-19.29371303","lng":"-44.41303734","municipio":"Caetanópolis","uf":"MG","ibge":3109907},{"lat":"-14.33856297","lng":"-40.90928964","municipio":"Caetanos","uf":"BA","ibge":2905156},{"lat":"-19.88714113","lng":"-43.66478735","municipio":"Caeté","uf":"MG","ibge":3110004},{"lat":"-8.775594845","lng":"-36.62480401","municipio":"Caetés","uf":"PE","ibge":2603207},{"lat":"-14.06675432","lng":"-42.48571145","municipio":"Caetité","uf":"BA","ibge":2905206},{"lat":"-11.69135622","lng":"-41.47222151","municipio":"Cafarnaum","uf":"BA","ibge":2905305},{"lat":"-22.78823524","lng":"-51.71500551","municipio":"Cafeara","uf":"PR","ibge":4103404},{"lat":"-24.61566698","lng":"-53.32491648","municipio":"Cafelândia","uf":"PR","ibge":4103453},{"lat":"-21.80970529","lng":"-49.60035441","municipio":"Cafelândia","uf":"SP","ibge":3508801},{"lat":"-23.90470447","lng":"-53.51106485","municipio":"Cafezal do Sul","uf":"PR","ibge":4103479},{"lat":"-22.01232526","lng":"-51.23595314","municipio":"Caiabu","uf":"SP","ibge":3508900},{"lat":"-20.69682898","lng":"-41.92298219","municipio":"Caiana","uf":"MG","ibge":3110103},{"lat":"-16.95345767","lng":"-51.80947978","municipio":"Caiapônia","uf":"GO","ibge":5204409},{"lat":"-28.29107482","lng":"-54.6378867","municipio":"Caibaté","uf":"RS","ibge":4303301},{"lat":"-27.07305393","lng":"-53.2505272","municipio":"Caibi","uf":"SC","ibge":4203105},{"lat":"-27.28094066","lng":"-53.43189549","municipio":"Caiçara","uf":"RS","ibge":4303400},{"lat":"-6.617469791","lng":"-35.46911428","municipio":"Caiçara","uf":"PB","ibge":2503605},{"lat":"-5.062994409","lng":"-36.05585715","municipio":"Caiçara do Norte","uf":"RN","ibge":2401859},{"lat":"-5.759087143","lng":"-35.99979041","municipio":"Caiçara do Rio do Vento","uf":"RN","ibge":2401909},{"lat":"-6.459138831","lng":"-37.09648877","municipio":"Caicó","uf":"RN","ibge":2402006},{"lat":"-23.36211605","lng":"-46.74410142","municipio":"Caieiras","uf":"SP","ibge":3509007},{"lat":"-13.4876034","lng":"-39.04325436","municipio":"Cairu","uf":"BA","ibge":2905404},{"lat":"-21.82991027","lng":"-51.9868927","municipio":"Caiuá","uf":"SP","ibge":3509106},{"lat":"-23.36097138","lng":"-46.88292015","municipio":"Cajamar","uf":"SP","ibge":3509205},{"lat":"-2.882882203","lng":"-44.67337716","municipio":"Cajapió","uf":"MA","ibge":2102408},{"lat":"-3.323868831","lng":"-45.00796533","municipio":"Cajari","uf":"MA","ibge":2102507},{"lat":"-24.72636097","lng":"-48.10499981","municipio":"Cajati","uf":"SP","ibge":3509254},{"lat":"-6.8904645","lng":"-38.56053037","municipio":"Cajazeiras","uf":"PB","ibge":2503704},{"lat":"-6.794184118","lng":"-42.39672729","municipio":"Cajazeiras do Piauí","uf":"PI","ibge":2202075},{"lat":"-6.962692813","lng":"-37.79918433","municipio":"Cajazeirinhas","uf":"PB","ibge":2503753},{"lat":"-20.87909252","lng":"-48.81012236","municipio":"Cajobi","uf":"SP","ibge":3509304},{"lat":"-9.389660575","lng":"-36.15637859","municipio":"Cajueiro","uf":"AL","ibge":2701308},{"lat":"-2.929227172","lng":"-41.34715036","municipio":"Cajueiro da Praia","uf":"PI","ibge":2202083},{"lat":"-20.78894267","lng":"-42.79392027","municipio":"Cajuri","uf":"MG","ibge":3110202},{"lat":"-21.2747175","lng":"-47.30426612","municipio":"Cajuru","uf":"SP","ibge":3509403},{"lat":"-8.738377944","lng":"-36.33328808","municipio":"Calçado","uf":"PE","ibge":2603306},{"lat":"2.496559045","lng":"-50.94477273","municipio":"Calçoene","uf":"AP","ibge":1600204},{"lat":"-21.92333596","lng":"-46.38778911","municipio":"Caldas","uf":"MG","ibge":3110301},{"lat":"-7.171751437","lng":"-35.34238209","municipio":"Caldas Brandão","uf":"PB","ibge":2503803},{"lat":"-17.74353887","lng":"-48.62119747","municipio":"Caldas Novas","uf":"GO","ibge":5204508},{"lat":"-16.71477694","lng":"-49.00337346","municipio":"Caldazinha","uf":"GO","ibge":5204557},{"lat":"-11.02215578","lng":"-40.30737036","municipio":"Caldeirão Grande","uf":"BA","ibge":2905503},{"lat":"-7.331559652","lng":"-40.63741891","municipio":"Caldeirão Grande do Piauí","uf":"PI","ibge":2202091},{"lat":"-23.66614388","lng":"-51.35808555","municipio":"Califórnia","uf":"PR","ibge":4103503},{"lat":"-26.60467718","lng":"-51.0966349","municipio":"Calmon","uf":"SC","ibge":4203154},{"lat":"-7.938427327","lng":"-38.15374592","municipio":"Calumbi","uf":"PE","ibge":2603405},{"lat":"-15.41762685","lng":"-39.49636733","municipio":"Camacan","uf":"BA","ibge":2905602},{"lat":"-12.69881676","lng":"-38.32574006","municipio":"Camaçari","uf":"BA","ibge":2905701},{"lat":"-20.62691585","lng":"-45.15879267","municipio":"Camacho","uf":"MG","ibge":3110400},{"lat":"-7.891242095","lng":"-36.83161058","municipio":"Camalaú","uf":"PB","ibge":2503902},{"lat":"-13.94707634","lng":"-39.10056972","municipio":"Camamu","uf":"BA","ibge":2905800},{"lat":"-22.75674636","lng":"-46.14686329","municipio":"Camanducaia","uf":"MG","ibge":3110509},{"lat":"-19.5352598","lng":"-54.04330949","municipio":"Camapuã","uf":"MS","ibge":5002605},{"lat":"-30.85070439","lng":"-51.81460091","municipio":"Camaquã","uf":"RS","ibge":4303509},{"lat":"-8.020521767","lng":"-34.99572136","municipio":"Camaragibe","uf":"PE","ibge":2603454},{"lat":"-28.58923753","lng":"-52.20379897","municipio":"Camargo","uf":"RS","ibge":4303558},{"lat":"-23.04126648","lng":"-50.07757072","municipio":"Cambará","uf":"PR","ibge":4103602},{"lat":"-29.04817527","lng":"-50.14376538","municipio":"Cambará do Sul","uf":"RS","ibge":4303608},{"lat":"-23.281632","lng":"-51.27772844","municipio":"Cambé","uf":"PR","ibge":4103701},{"lat":"-23.60061188","lng":"-51.58163061","municipio":"Cambira","uf":"PR","ibge":4103800},{"lat":"-27.0264565","lng":"-48.64999585","municipio":"Camboriú","uf":"SC","ibge":4203204},{"lat":"-21.57727671","lng":"-41.908636","municipio":"Cambuci","uf":"RJ","ibge":3300902},{"lat":"-22.61109716","lng":"-46.05801936","municipio":"Cambuí","uf":"MG","ibge":3110608},{"lat":"-21.85540977","lng":"-45.29252051","municipio":"Cambuquira","uf":"MG","ibge":3110707},{"lat":"-2.24683848","lng":"-49.49783017","municipio":"Cametá","uf":"PA","ibge":1502103},{"lat":"-2.900966575","lng":"-40.84752774","municipio":"Camocim","uf":"CE","ibge":2302602},{"lat":"-8.36213804","lng":"-35.76519473","municipio":"Camocim de São Félix","uf":"PE","ibge":2603504},{"lat":"-18.24112353","lng":"-41.73013179","municipio":"Campanário","uf":"MG","ibge":3110806},{"lat":"-21.8353567","lng":"-45.39844867","municipio":"Campanha","uf":"MG","ibge":3110905},{"lat":"-21.71145483","lng":"-46.24815851","municipio":"Campestre","uf":"MG","ibge":3111002},{"lat":"-8.848375353","lng":"-35.56671773","municipio":"Campestre","uf":"AL","ibge":2701357},{"lat":"-28.79651225","lng":"-51.095664","municipio":"Campestre da Serra","uf":"RS","ibge":4303673},{"lat":"-16.76230922","lng":"-49.69553426","municipio":"Campestre de Goiás","uf":"GO","ibge":5204607},{"lat":"-6.164716646","lng":"-47.36763286","municipio":"Campestre do Maranhão","uf":"MA","ibge":2102556},{"lat":"-24.59495658","lng":"-52.81356415","municipio":"Campina da Lagoa","uf":"PR","ibge":4103909},{"lat":"-27.99169003","lng":"-54.84532895","municipio":"Campina das Missões","uf":"RS","ibge":4303707},{"lat":"-23.58407684","lng":"-48.48039902","municipio":"Campina do Monte Alegre","uf":"SP","ibge":3509452},{"lat":"-25.10257847","lng":"-51.81478653","municipio":"Campina do Simão","uf":"PR","ibge":4103958},{"lat":"-7.22149704","lng":"-35.88385911","municipio":"Campina Grande","uf":"PB","ibge":2504009},{"lat":"-25.30324751","lng":"-49.05346587","municipio":"Campina Grande do Sul","uf":"PR","ibge":4104006},{"lat":"-19.5354556","lng":"-49.48116905","municipio":"Campina Verde","uf":"MG","ibge":3111101},{"lat":"-13.78634859","lng":"-48.56983433","municipio":"Campinaçu","uf":"GO","ibge":5204656},{"lat":"-14.53961743","lng":"-52.79749475","municipio":"Campinápolis","uf":"MT","ibge":5102603},{"lat":"-22.9073425","lng":"-47.06015627","municipio":"Campinas","uf":"SP","ibge":3509502},{"lat":"-7.654778128","lng":"-41.88074529","municipio":"Campinas do Piauí","uf":"PI","ibge":2202109},{"lat":"-27.71160142","lng":"-52.63310448","municipio":"Campinas do Sul","uf":"RS","ibge":4303806},{"lat":"-14.31059796","lng":"-49.15634729","municipio":"Campinorte","uf":"GO","ibge":5204706},{"lat":"-26.19065928","lng":"-49.26334448","municipio":"Campo Alegre","uf":"SC","ibge":4203303},{"lat":"-9.783416039","lng":"-36.35243475","municipio":"Campo Alegre","uf":"AL","ibge":2701407},{"lat":"-17.64055514","lng":"-47.7782251","municipio":"Campo Alegre de Goiás","uf":"GO","ibge":5204805},{"lat":"-9.517154114","lng":"-43.01229844","municipio":"Campo Alegre de Lourdes","uf":"BA","ibge":2905909},{"lat":"-8.374480381","lng":"-41.83201332","municipio":"Campo Alegre do Fidalgo","uf":"PI","ibge":2202117},{"lat":"-16.50406349","lng":"-44.81185821","municipio":"Campo Azul","uf":"MG","ibge":3111150},{"lat":"-20.89531625","lng":"-45.27586136","municipio":"Campo Belo","uf":"MG","ibge":3111200},{"lat":"-27.89665739","lng":"-50.76199375","municipio":"Campo Belo do Sul","uf":"SC","ibge":4203402},{"lat":"-29.6756851","lng":"-51.05886992","municipio":"Campo Bom","uf":"RS","ibge":4303905},{"lat":"-25.03963448","lng":"-52.9968696","municipio":"Campo Bonito","uf":"PR","ibge":4104055},{"lat":"-10.74333515","lng":"-37.49635633","municipio":"Campo do Brito","uf":"SE","ibge":2801009},{"lat":"-21.10932572","lng":"-45.83075714","municipio":"Campo do Meio","uf":"MG","ibge":3111309},{"lat":"-25.98100566","lng":"-49.69037694","municipio":"Campo do Tenente","uf":"PR","ibge":4104105},{"lat":"-26.39455114","lng":"-53.09015517","municipio":"Campo Erê","uf":"SC","ibge":4203501},{"lat":"-19.76544539","lng":"-48.57300347","municipio":"Campo Florido","uf":"MG","ibge":3111408},{"lat":"-10.50566155","lng":"-40.31882099","municipio":"Campo Formoso","uf":"BA","ibge":2906006},{"lat":"-9.956922603","lng":"-36.79084005","municipio":"Campo Grande","uf":"AL","ibge":2701506},{"lat":"-20.45802999","lng":"-54.61574357","municipio":"Campo Grande","uf":"MS","ibge":5002704},{"lat":"-7.13599312","lng":"-41.03120096","municipio":"Campo Grande do Piauí","uf":"PI","ibge":2202133},{"lat":"-25.4594905","lng":"-49.52884145","municipio":"Campo Largo","uf":"PR","ibge":4104204},{"lat":"-3.807868939","lng":"-42.62604104","municipio":"Campo Largo do Piauí","uf":"PI","ibge":2202174},{"lat":"-16.29862301","lng":"-49.08993652","municipio":"Campo Limpo de Goiás","uf":"GO","ibge":5204854},{"lat":"-23.20939643","lng":"-46.76381923","municipio":"Campo Limpo Paulista","uf":"SP","ibge":3509601},{"lat":"-25.3679565","lng":"-49.42766497","municipio":"Campo Magro","uf":"PR","ibge":4104253},{"lat":"-4.829113927","lng":"-42.1667446","municipio":"Campo Maior","uf":"PI","ibge":2202208},{"lat":"-24.0412232","lng":"-52.38111509","municipio":"Campo Mourão","uf":"PR","ibge":4104303},{"lat":"-27.67449261","lng":"-53.80281387","municipio":"Campo Novo","uf":"RS","ibge":4304002},{"lat":"-10.56841647","lng":"-63.62499143","municipio":"Campo Novo de Rondônia","uf":"RO","ibge":1100700},{"lat":"-13.65473317","lng":"-57.88854648","municipio":"Campo Novo do Parecis","uf":"MT","ibge":5102637},{"lat":"-6.243383053","lng":"-36.18250457","municipio":"Campo Redondo","uf":"RN","ibge":2402105},{"lat":"-15.55370427","lng":"-55.17165541","municipio":"Campo Verde","uf":"MT","ibge":5102678},{"lat":"-19.69889584","lng":"-46.17370992","municipio":"Campos Altos","uf":"MG","ibge":3111507},{"lat":"-13.03672399","lng":"-46.7707833","municipio":"Campos Belos","uf":"GO","ibge":5204904},{"lat":"-28.89213177","lng":"-52.99891473","municipio":"Campos Borges","uf":"RS","ibge":4304101},{"lat":"-13.71992305","lng":"-59.26340852","municipio":"Campos de Júlio","uf":"MT","ibge":5102686},{"lat":"-22.74009191","lng":"-45.5892017","municipio":"Campos do Jordão","uf":"SP","ibge":3509700},{"lat":"-21.75189863","lng":"-41.33047649","municipio":"Campos dos Goytacazes","uf":"RJ","ibge":3301009},{"lat":"-21.23869791","lng":"-45.75690737","municipio":"Campos Gerais","uf":"MG","ibge":3111606},{"lat":"-7.971681394","lng":"-46.80197435","municipio":"Campos Lindos","uf":"TO","ibge":1703842},{"lat":"-27.39905298","lng":"-51.22367299","municipio":"Campos Novos","uf":"SC","ibge":4203600},{"lat":"-22.599749","lng":"-50.00179472","municipio":"Campos Novos Paulista","uf":"SP","ibge":3509809},{"lat":"-7.0733835","lng":"-40.37900313","municipio":"Campos Sales","uf":"CE","ibge":2302701},{"lat":"-14.27326696","lng":"-49.66326511","municipio":"Campos Verdes","uf":"GO","ibge":5204953},{"lat":"-7.40708242","lng":"-35.28279064","municipio":"Camutanga","uf":"PE","ibge":2603603},{"lat":"-21.02345167","lng":"-45.18592531","municipio":"Cana Verde","uf":"MG","ibge":3111903},{"lat":"-20.68737604","lng":"-42.61301145","municipio":"Canaã","uf":"MG","ibge":3111705},{"lat":"-6.532196616","lng":"-49.84895843","municipio":"Canaã dos Carajás","uf":"PA","ibge":1502152},{"lat":"-11.04618692","lng":"-51.83775801","municipio":"Canabrava do Norte","uf":"MT","ibge":5102694},{"lat":"-25.01690807","lng":"-47.92848281","municipio":"Cananéia","uf":"SP","ibge":3509908},{"lat":"-9.117380298","lng":"-37.60564715","municipio":"Canapi","uf":"AL","ibge":2701605},{"lat":"-18.72166372","lng":"-49.20405445","municipio":"Canápolis","uf":"MG","ibge":3111804},{"lat":"-13.0759115","lng":"-44.20502899","municipio":"Canápolis","uf":"BA","ibge":2906105},{"lat":"-11.68758331","lng":"-41.76549223","municipio":"Canarana","uf":"BA","ibge":2906204},{"lat":"-13.55922951","lng":"-52.27345686","municipio":"Canarana","uf":"MT","ibge":5102702},{"lat":"-22.69066907","lng":"-45.05697574","municipio":"Canas","uf":"SP","ibge":3509957},{"lat":"-7.69462156","lng":"-43.71942803","municipio":"Canavieira","uf":"PI","ibge":2202251},{"lat":"-15.67977748","lng":"-38.94737587","municipio":"Canavieiras","uf":"BA","ibge":2906303},{"lat":"-11.80497023","lng":"-39.1237185","municipio":"Candeal","uf":"BA","ibge":2906402},{"lat":"-20.77035004","lng":"-45.2768567","municipio":"Candeias","uf":"MG","ibge":3112000},{"lat":"-12.67192271","lng":"-38.54359627","municipio":"Candeias","uf":"BA","ibge":2906501},{"lat":"-8.785020703","lng":"-63.70002007","municipio":"Candeias do Jamari","uf":"RO","ibge":1100809},{"lat":"-29.67128542","lng":"-52.78966844","municipio":"Candelária","uf":"RS","ibge":4304200},{"lat":"-14.4131865","lng":"-42.86440234","municipio":"Candiba","uf":"BA","ibge":2906600},{"lat":"-24.56466912","lng":"-51.33258051","municipio":"Cândido de Abreu","uf":"PR","ibge":4104402},{"lat":"-27.95131807","lng":"-54.75283404","municipio":"Cândido Godói","uf":"RS","ibge":4304309},{"lat":"-1.453889109","lng":"-45.73726837","municipio":"Cândido Mendes","uf":"MA","ibge":2102606},{"lat":"-22.7469255","lng":"-50.38839317","municipio":"Cândido Mota","uf":"SP","ibge":3510005},{"lat":"-21.32261358","lng":"-48.63403931","municipio":"Cândido Rodrigues","uf":"SP","ibge":3510104},{"lat":"-15.50606635","lng":"-41.24111759","municipio":"Cândido Sales","uf":"BA","ibge":2906709},{"lat":"-31.56100972","lng":"-53.67780464","municipio":"Candiota","uf":"RS","ibge":4304358},{"lat":"-25.56793185","lng":"-52.0554464","municipio":"Candói","uf":"PR","ibge":4104428},{"lat":"-29.35797185","lng":"-50.81486735","municipio":"Canela","uf":"RS","ibge":4304408},{"lat":"-27.27241479","lng":"-48.78927313","municipio":"Canelinha","uf":"SC","ibge":4203709},{"lat":"-6.374925216","lng":"-35.12853966","municipio":"Canguaretama","uf":"RN","ibge":2402204},{"lat":"-31.39385952","lng":"-52.67628583","municipio":"Canguçu","uf":"RS","ibge":4304507},{"lat":"-10.13874366","lng":"-36.97384498","municipio":"Canhoba","uf":"SE","ibge":2801108},{"lat":"-8.883870562","lng":"-36.19357488","municipio":"Canhotinho","uf":"PE","ibge":2603702},{"lat":"-4.35534429","lng":"-39.31034295","municipio":"Canindé","uf":"CE","ibge":2302800},{"lat":"-9.654104067","lng":"-37.78796372","municipio":"Canindé de São Francisco","uf":"SE","ibge":2801207},{"lat":"-23.00983722","lng":"-49.78543195","municipio":"Canitar","uf":"SP","ibge":3510153},{"lat":"-29.91869671","lng":"-51.18102978","municipio":"Canoas","uf":"RS","ibge":4304606},{"lat":"-26.17880701","lng":"-50.39784871","municipio":"Canoinhas","uf":"SC","ibge":4203808},{"lat":"-10.66674991","lng":"-39.49660501","municipio":"Cansanção","uf":"BA","ibge":2906808},{"lat":"2.607666398","lng":"-60.60206285","municipio":"Cantá","uf":"RR","ibge":1400175},{"lat":"-21.98183986","lng":"-42.3659776","municipio":"Cantagalo","uf":"RJ","ibge":3301108},{"lat":"-18.53171791","lng":"-42.62572729","municipio":"Cantagalo","uf":"MG","ibge":3112059},{"lat":"-25.37431739","lng":"-52.12668763","municipio":"Cantagalo","uf":"PR","ibge":4104451},{"lat":"-3.628364312","lng":"-44.38181614","municipio":"Cantanhede","uf":"MA","ibge":2102705},{"lat":"-8.10823192","lng":"-42.94402102","municipio":"Canto do Buriti","uf":"PI","ibge":2202307},{"lat":"-9.890672961","lng":"-39.02407124","municipio":"Canudos","uf":"BA","ibge":2906824},{"lat":"-29.3235253","lng":"-52.23238262","municipio":"Canudos do Vale","uf":"RS","ibge":4304614},{"lat":"-6.529106076","lng":"-64.39423082","municipio":"Canutama","uf":"AM","ibge":1300904},{"lat":"-1.192441995","lng":"-47.17512612","municipio":"Capanema","uf":"PA","ibge":1502202},{"lat":"-25.68297742","lng":"-53.8001787","municipio":"Capanema","uf":"PR","ibge":4104501},{"lat":"-27.94168528","lng":"-50.51147929","municipio":"Capão Alto","uf":"SC","ibge":4203253},{"lat":"-24.00680097","lng":"-48.35143452","municipio":"Capão Bonito","uf":"SP","ibge":3510203},{"lat":"-28.12597529","lng":"-51.39515846","municipio":"Capão Bonito do Sul","uf":"RS","ibge":4304622},{"lat":"-29.76146664","lng":"-50.02002244","municipio":"Capão da Canoa","uf":"RS","ibge":4304630},{"lat":"-28.93162752","lng":"-54.554699","municipio":"Capão do Cipó","uf":"RS","ibge":4304655},